SEQPLT16,PSTATABB,PNAME,LAT,LON,PLPRMFL,NAMEPCAP,PLNGENAN,PLCO2EQA
1,AK,7-Mile Ridge Wind Project,63.210689,-143.247156,WND,1.80,0.00,0.00
2,AK,Agrium Kenai Nitrogen Operations,60.673200,-151.378400,NG,21.60,0.00,0.00
3,AK,Alakanuk,62.683300,-164.654400,DFO,2.60,1213.00,1049.86
4,AK,Allison Creek Hydro,61.084444,-146.353333,WAT,6.50,881.00,0.00
5,AK,Ambler,67.087980,-157.856719,DFO,1.10,1316.00,1087.88
6,AK,Anchorage 1,61.222100,-149.866100,NG,121.40,45082.00,31902.71
7,AK,Angoon,57.499166,-134.586140,DFO,1.90,1714.00,1429.64
8,AK,Aniak,61.580678,-159.535643,DFO,2.60,2614.00,2167.49
9,AK,Annex Creek,58.317600,-134.101000,WAT,4.00,25644.00,0.00
10,AK,Auke Bay,58.387500,-134.644600,DFO,36.20,8.00,243.96
11,AK,Aurora Energy LLC Chena,64.847743,-147.735063,SUB,31.30,191982.00,191348.94
12,AK,Barrow,71.292000,-156.778600,NG,20.30,50162.00,44205.17
13,AK,Battery Energy Storage System,64.816700,-147.725000,MWH,40.00,-2392.00,0.00
14,AK,Beaver Falls,55.379750,-131.470269,WAT,5.40,42915.00,0.00
15,AK,Beluga,61.186100,-151.035600,NG,374.40,84421.00,89980.70
16,AK,Bernice Lake,60.693500,-151.387400,NG,76.70,12.00,429.17
17,AK,Bethel,60.789700,-161.787778,DFO,12.60,41020.00,32999.69
18,AK,Black Bear Lake,55.476472,-133.147720,WAT,4.50,20763.00,0.00
19,AK,Blue Lake Hydro,57.051600,-135.229700,WAT,22.90,69018.00,0.00
20,AK,Bradley Lake,59.778620,-150.940150,WAT,126.00,430509.00,0.00
21,AK,Brevig Mission,65.331716,-166.479506,DFO,1.50,1137.00,878.45
22,AK,Centennial,55.121433,-131.560267,DFO,3.30,3046.00,3049.63
23,AK,Chester Lake,55.116879,-131.545879,WAT,1.00,4585.00,0.00
24,AK,Chevak,61.525297,-165.590152,DFO,2.80,2471.00,1515.43
25,AK,Cooper Lake,60.392331,-149.665603,WAT,19.40,86666.00,0.00
26,AK,Craig (AK),55.476910,-133.148690,DFO,6.20,431.00,465.32
27,AK,Delta Power,64.028056,-145.719444,DFO,23.10,38.00,298.01
28,AK,Delta Wind Farm,64.013889,-145.596667,WND,1.90,4446.00,0.00
29,AK,Dillingham,59.042914,-158.468597,DFO,10.70,18122.00,14187.37
30,AK,Dutch Harbor,53.892459,-166.538185,DFO,26.00,46918.00,34984.05
31,AK,Eielson AFB Central Heat & Power Plant,64.671410,-147.075988,SUB,33.50,69894.57,41747.39
32,AK,Eklutna Generation Station,61.457778,-149.351389,NG,171.00,819046.00,417887.55
33,AK,Eklutna Hydro Project,61.475211,-149.150090,WAT,44.40,76916.00,0.00
34,AK,Elim,64.616558,-162.263717,DFO,1.60,1278.00,947.99
35,AK,Emmonak,62.777694,-164.531517,DFO,4.80,4654.00,3019.64
36,AK,ESS Battery,57.799167,-152.404167,MWH,3.00,0.00,0.00
37,AK,Eva Creek Wind,64.058333,-148.900000,WND,24.60,73845.00,0.00
38,AK,Fairbanks,64.854171,-147.719351,DFO,42.20,7133.00,12944.38
39,AK,False Island,55.489180,-133.134500,DFO,1.60,689.00,558.57
40,AK,Fire Island Wind,61.130000,-150.243611,WND,18.00,56022.00,0.00
41,AK,Flywheel Energy Storage System,57.780114,-152.443783,MWH,2.00,0.00,0.00
42,AK,Fort Greely Power Plant,63.973572,-145.716581,DFO,10.40,107.80,89.39
43,AK,Galena Electric Utility,64.744170,-156.873600,DFO,8.00,5390.00,4742.37
44,AK,Gambell,63.777058,-171.712439,DFO,1.90,1911.00,1143.19
45,AK,George M Sullivan Generation Plant 2,61.229713,-149.716744,NG,418.00,589738.00,380839.91
46,AK,Glennallen,62.110415,-145.532529,DFO,11.30,10403.00,8335.08
47,AK,Goat Lake Hydro,59.535700,-135.212300,WAT,4.00,16957.00,0.00
48,AK,Gold Creek,58.310700,-134.417400,WAT,9.70,4597.00,9.34
49,AK,Green Lake,56.986284,-135.122750,WAT,18.60,35983.00,0.00
50,AK,Gwitchyaa Zhee,66.566287,-145.253052,DFO,6.00,2554.00,2469.10
51,AK,Haines,59.235931,-135.446228,DFO,7.30,-201.00,101.19
52,AK,Healy,63.854200,-148.950000,LIG,92.80,192475.00,300819.57
53,AK,Hiilangaay Hydro,55.216389,-132.603611,WAT,5.00,0.00,0.00
54,AK,Hoonah,58.106432,-135.430740,DFO,3.40,3348.00,2673.29
55,AK,Hooper Bay,61.530858,-166.101944,DFO,3.30,3326.00,2271.71
56,AK,Humpback Creek,60.612822,-145.679411,WAT,1.20,3743.00,0.00
57,AK,Hydaburg,55.204937,-132.821435,DFO,1.00,-9.00,15.73
58,AK,Industrial Plant,58.367635,-134.608020,DFO,41.70,138.00,1531.41
59,AK,International,61.168972,-149.911038,NG,46.30,-780.00,135.78
60,AK,Jarvis Street,57.049700,-135.312800,DFO,25.60,1099.00,1733.63
61,AK,JBER Landfill Gas Power Plant,61.286000,-149.610000,LFG,11.50,42516.00,0.70
62,AK,Kake,56.962983,-133.922557,DFO,3.00,2139.00,1892.26
63,AK,Kasidaya Creek Hydro,59.407200,-135.340800,WAT,3.00,7123.00,0.00
64,AK,Kasigluk,60.873100,-162.519700,DFO,2.40,2958.00,1934.21
65,AK,Ketchikan,55.344641,-131.633425,WAT,4.20,20683.00,0.00
66,AK,Kiana,66.973889,-160.428592,DFO,1.70,1545.00,1197.51
67,AK,King Cove,55.061683,-162.310300,WAT,2.60,3914.00,1663.33
68,AK,Kivalina,67.726644,-164.538447,DFO,1.10,1282.00,970.55
69,AK,Klawock,55.557778,-132.981389,DFO,1.40,0.00,0.00
70,AK,Kodiak,57.789956,-152.396982,DFO,37.30,0.00,0.00
71,AK,Kotlik,63.032150,-163.553106,DFO,1.40,1927.00,1465.58
72,AK,Kotzebue,66.837778,-162.556944,DFO,20.40,20474.00,13177.82
73,AK,Koyuk,64.932089,-161.167103,DFO,1.10,1287.00,946.54
74,AK,Lake Dorothy Hydroelectric Project,58.232500,-134.053300,WAT,14.30,87454.00,0.00
75,AK,Lemon Creek,58.353600,-134.495300,DFO,61.70,212.00,275.31
76,AK,Mahoney Lake Hydroelectric,55.419444,-131.537778,WAT,9.60,0.00,0.00
77,AK,Marshall,61.878186,-162.085147,DFO,1.10,1474.00,1163.92
78,AK,McGrath,62.956990,-155.594997,DFO,3.20,2289.00,1807.54
79,AK,Mountain Village,62.085569,-163.729072,DFO,3.70,2729.00,2187.15
80,AK,Naknek,58.730417,-157.007222,DFO,11.10,22066.00,9587.41
81,AK,New Stuyahok,59.448358,-157.325528,DFO,1.40,1343.00,1037.49
82,AK,Newhalen,59.899054,-154.698735,WAT,3.20,3177.00,67.35
83,AK,Nikiski Co-Generation,60.676539,-151.377713,NG,77.90,398898.00,204592.02
84,AK,Noatak,67.570931,-162.965728,DFO,1.70,1813.00,1405.88
85,AK,Noorvik,66.834519,-161.038717,DFO,2.20,1855.00,1431.94
86,AK,North Pole,64.735600,-147.348100,WO,181.00,417652.00,328133.79
87,AK,Northway,62.961700,-141.937200,DFO,1.50,1107.00,982.76
88,AK,NSB Anaktuvuk Pass,68.137950,-151.741017,DFO,2.90,3855.00,3651.54
89,AK,NSB Atqasuk Utility,70.482600,-157.425200,DFO,3.40,2859.00,2930.08
90,AK,NSB Kaktovik Utility,70.125617,-143.619033,DFO,2.60,4580.00,4294.25
91,AK,NSB Nuiqsut Utility,70.220565,-150.993492,DFO,4.80,6349.00,5824.67
92,AK,NSB Point Hope Utility,68.348424,-166.737211,DFO,4.60,6549.00,4881.83
93,AK,NSB Point Lay Utility,69.740833,-163.005833,DFO,4.60,3609.00,3064.37
94,AK,NSB Wainwright Utility,70.642877,-160.020461,DFO,3.30,6796.00,6220.77
95,AK,Nunapitchuk,60.895880,-162.459756,DFO,2.20,0.00,0.00
96,AK,Nymans Plant,57.731608,-152.507044,DFO,10.00,0.00,0.00
97,AK,Orca,60.555889,-145.752983,DFO,13.70,5589.00,4604.14
98,AK,Pelican,57.957197,-136.220095,WAT,2.90,964.00,2.38
99,AK,Petersburg,56.811040,-132.957091,WAT,14.80,11731.74,101.60
100,AK,Pillar Mountain Wind Project,57.786900,-152.440600,WND,9.00,29309.00,0.00
101,AK,Pilot Station,61.936456,-162.880706,DFO,1.70,1938.00,1573.09
102,AK,Port Lions,57.864775,-152.855441,DFO,1.00,0.00,0.00
103,AK,Power Creek,60.588686,-145.604539,WAT,6.00,15539.00,0.00
104,AK,Purple Lake,55.091263,-131.544978,WAT,3.90,14286.00,0.00
105,AK,Quinhagak,59.747436,-161.910647,DFO,1.10,2156.00,1461.60
106,AK,S W Bailey,55.357397,-131.696960,DFO,25.90,-1111.00,635.59
107,AK,Salmon Creek 1,58.326900,-134.463100,WAT,8.50,27902.00,0.00
108,AK,Savoonga,63.695267,-170.475661,DFO,1.70,2302.00,1682.99
109,AK,Scammon Bay,61.843036,-165.581497,DFO,1.30,1634.00,1306.33
110,AK,Selawik,66.606778,-160.014808,DFO,4.30,2812.00,2168.64
111,AK,Seldovia,59.439542,-151.713439,DFO,5.50,87.00,65.06
112,AK,Seward (AK),60.130922,-149.435010,DFO,18.60,105.00,143.64
113,AK,Shishmaref,66.255072,-166.073589,DFO,2.30,1638.00,1260.61
114,AK,Shungnak,66.888114,-157.140206,DFO,1.20,1551.00,1261.51
115,AK,Silvis,55.381402,-131.517758,WAT,2.10,13207.00,0.00
116,AK,Skagway,59.454500,-135.313100,WAT,4.40,2781.00,157.40
117,AK,Snake River,64.505331,-165.429814,DFO,25.70,31847.00,21124.18
118,AK,Snettisham,58.141500,-133.737000,WAT,78.20,273037.00,0.00
119,AK,Soldotna,60.499444,-150.997222,NG,100.00,39612.00,27230.80
120,AK,Solomon Gulch,61.082800,-146.303300,WAT,12.00,54850.00,0.00
121,AK,South Fork,55.563333,-132.891111,WAT,2.00,5322.00,0.00
122,AK,Southcentral Power Project,61.167417,-149.905304,NG,203.90,871990.00,393968.13
123,AK,St Marys IC,62.051525,-163.172567,DFO,7.10,2980.00,2724.42
124,AK,St. Michael,63.477500,-162.038300,DFO,1.70,0.00,0.00
125,AK,Stebbins,63.521047,-162.286322,DFO,3.20,3351.00,2744.25
126,AK,Swampy Acres,57.775560,-152.480280,DFO,8.40,0.00,0.00
127,AK,Swan Lake,55.615208,-131.356111,WAT,22.60,71246.00,0.00
128,AK,Sweetheart Lake Hydroelectric Facility,57.944900,-133.686700,WAT,19.80,0.00,0.00
129,AK,Terror Lake,57.686100,-152.895000,WAT,33.60,124484.00,0.00
130,AK,Tesoro Kenai Cogeneration Plant,60.677000,-151.381500,NG,8.60,62679.00,18098.44
131,AK,Thorne Bay Plant,55.685860,-132.528920,DFO,1.00,-1.00,53.51
132,AK,TNSG North Plant,70.235278,-148.383611,NG,25.70,72702.00,55910.57
133,AK,TNSG South Plant,70.200000,-148.466667,NG,8.40,0.00,0.00
134,AK,Togiak,59.059744,-160.380278,DFO,3.70,2987.00,2405.35
135,AK,Tok,63.335520,-142.999970,DFO,7.60,9175.00,7191.23
136,AK,Toksook Bay,60.530142,-165.108575,DFO,1.70,3430.00,2364.38
137,AK,Tyee Lake Hydroelectric Facility,56.216403,-131.504344,WAT,22.60,96901.00,0.00
138,AK,Unalakleet,63.876789,-160.790414,DFO,3.60,3199.00,2519.00
139,AK,Unalaska Power Module,53.863993,-166.512591,DFO,1.10,289.00,238.36
140,AK,Unisea G 2,53.879600,-166.553200,DFO,19.20,30339.00,25922.09
141,AK,University of Alaska Fairbanks,64.854171,-147.822075,SUB,39.60,41064.00,24758.55
142,AK,Upper Kalskag,61.526858,-160.348128,DFO,1.10,1447.00,1128.85
143,AK,Utility Plants Section,64.825601,-147.648627,SUB,22.50,105551.40,69032.24
144,AK,Valdez,61.130300,-146.364700,DFO,9.70,5050.00,4518.03
145,AK,Valdez Cogen,61.083900,-146.252900,WO,5.30,17636.00,13008.54
146,AK,Viking,55.540708,-133.102344,DFO,1.00,-10.00,0.00
147,AK,Westward Seafoods,53.858508,-166.552880,DFO,6.60,18455.00,6696.76
148,AK,Whitman,55.328056,-131.530833,WAT,4.80,7649.00,0.00
149,AK,Wrangell,56.460976,-132.379439,DFO,14.70,44.00,54.65
150,AK,Yakutat,59.544553,-139.724306,DFO,7.70,5794.00,4686.33
151,AL,ABC Coke,33.582793,-86.779866,OG,3.80,2989.00,993.51
152,AL,Alabama Pine Pulp,31.582500,-87.488900,BLQ,69.00,439412.15,10317.88
153,AL,Alabama River Pulp,31.582500,-87.488900,BLQ,48.00,310491.88,12952.99
154,AL,Albertville,34.363389,-86.223889,DFO,4.00,0.00,0.00
155,AL,AMEA Sylacauga Plant,33.166100,-86.282500,NG,98.60,46242.00,31142.72
156,AL,ANAD Solar Array,33.626728,-85.969481,SUN,7.40,0.00,0.00
157,AL,APC1,,,NG,270.00,0.00,0.00
158,AL,APC2,,,NG,300.00,0.00,0.00
159,AL,APC3,,,NG,200.00,0.00,0.00
160,AL,Bankhead Dam,33.458665,-87.356823,WAT,53.90,-325.00,0.00
161,AL,Barry,31.006900,-88.010300,BIT,2841.50,12770891.00,8273769.31
162,AL,Bartletts Ferry,32.661976,-85.091552,WAT,173.00,362014.00,0.00
163,AL,Bellefonte,34.709200,-85.927800,DFO,14.00,0.00,0.00
164,AL,Boise Cascade Pulp & Paper Mill,31.489400,-87.898900,BLQ,18.00,124311.80,16044.62
165,AL,Browns Ferry,34.704200,-87.118900,NUC,3494.00,26214623.00,0.00
166,AL,Calhoun Energy Center,33.588300,-85.973100,NG,748.00,195125.00,127181.73
167,AL,Charles R Lowman,31.488019,-87.910747,BIT,538.00,1480692.00,1951563.11
168,AL,Colbert,34.743900,-87.848600,BIT,1826.00,744333.00,972217.68
169,AL,Crestwood Dothan,31.262356,-85.402737,DFO,13.60,695.00,602.32
170,AL,Decatur Energy Center,34.629200,-87.021400,NG,902.40,2600458.00,1152910.47
171,AL,Decatur-Morgan Co LFG Recovery Project,34.623611,-87.101111,LFG,1.60,10970.00,0.00
172,AL,District 100 Transco Gas Pipe Line,32.668889,-86.720000,WH,1.60,0.00,0.00
173,AL,E B Harris Generating Plant,32.381352,-86.574366,NG,2534.00,6096885.00,2517671.52
174,AL,E C Gaston,33.244211,-86.458056,BIT,2034.00,4280420.00,5013582.45
175,AL,ExxonMobil Mobile Bay Onshore,30.432030,-88.182410,NG,12.00,83285.00,25608.91
176,AL,Fort Rucker Solar Array,31.331148,-85.730190,SUN,10.60,0.00,0.00
177,AL,Gadsden,34.012800,-85.970800,NG,138.00,190978.00,118250.52
178,AL,Gantt,31.403300,-86.479469,WAT,3.00,5718.00,0.00
179,AL,Georgia-Pacific Brewton Mill,31.077000,-87.111600,BLQ,115.90,226577.98,36520.68
180,AL,Georgia-Pacific Consr Prods LP-Naheola,32.226800,-88.025200,BLQ,78.40,219376.00,38495.88
181,AL,Goat Rock,32.609650,-85.080500,WAT,44.60,116128.00,0.00
182,AL,Gorgas,33.644344,-87.196486,BIT,1416.70,5494441.00,6183798.68
183,AL,Greene County,32.601700,-87.781100,NG,1288.40,1309634.00,1060024.13
184,AL,Guntersville,34.421272,-86.393931,WAT,115.20,506256.00,0.00
185,AL,H Neely Henry Dam,33.784500,-86.052400,WAT,72.90,154855.00,0.00
186,AL,Harris Dam,33.258281,-85.616047,WAT,135.00,114934.00,0.00
187,AL,Hillabee Energy Center,33.000669,-85.903278,NG,822.80,5387101.00,2229445.32
188,AL,Hog Bayou Energy Center,30.747800,-88.057500,NG,280.00,1501249.00,668314.03
189,AL,Holt Dam,33.255300,-87.449500,WAT,46.90,129325.00,0.00
190,AL,International Paper-Prattville Mill,32.418700,-86.471800,BLQ,89.80,573671.00,181000.47
191,AL,International Paper-Riverdale Mill,32.426016,-86.870912,NG,104.20,576969.30,0.00
192,AL,James H Miller Jr,33.631900,-87.059700,SUB,2822.00,18193039.00,21724990.49
193,AL,Jones Bluff,32.324242,-86.784319,WAT,82.00,195134.00,0.00
194,AL,Jordan Dam,32.618900,-86.254800,WAT,100.00,269244.00,0.00
195,AL,Joseph M Farley,31.223100,-85.111600,NUC,1776.40,13687256.00,0.00
196,AL,LaFayette Solar Farm,32.876313,-85.388210,SUN,79.20,0.00,0.00
197,AL,Langdale,32.813836,-85.167786,WAT,1.00,0.00,0.00
198,AL,Lay Dam,32.963300,-86.518700,WAT,177.00,404623.00,0.00
199,AL,Lewis Smith Dam,33.940600,-87.107700,WAT,181.00,233853.00,0.00
200,AL,Logan Martin Dam,33.425878,-86.337547,WAT,128.10,266305.00,0.00
201,AL,Martin Dam,32.680394,-85.911442,WAT,210.60,304289.00,0.00
202,AL,McIntosh (7063),31.254600,-88.029900,NG,676.00,308871.00,199096.44
203,AL,McWilliams,31.400255,-86.476449,NG,654.00,3816606.00,1685241.20
204,AL,MeadWestvaco Coated Board LLC,32.176100,-85.027200,NG,112.50,777256.00,154453.50
205,AL,Millers Ferry,32.100881,-87.399767,WAT,101.10,239468.00,0.00
206,AL,Mitchell Dam,32.806025,-86.444892,WAT,170.00,372569.00,0.00
207,AL,Mobile Energy Services LLC,30.736487,-88.051643,WDS,109.20,391430.00,79394.88
208,AL,Morgan Energy Center,34.639700,-87.063900,NG,900.00,4115273.00,1615155.63
209,AL,Plant H. Allen Franklin,32.607800,-85.097500,NG,2683.80,11670861.00,4826857.11
210,AL,Point A,31.361146,-86.518307,WAT,5.20,14113.00,0.00
211,AL,River Bend Solar LLC,34.831511,-87.842204,SUN,75.00,31261.00,0.00
212,AL,Rock-Tenn Mill,32.454100,-87.975900,BLQ,84.00,228859.89,17456.19
213,AL,SABIC Innovative Plastics - Burkville,32.310226,-86.525420,NG,97.00,477109.00,129366.10
214,AL,Sand Valley Power Station,34.343875,-85.866103,LFG,4.80,27140.00,0.00
215,AL,Sloss Industries Corp,33.568164,-86.798730,OG,25.00,23726.20,7820.19
216,AL,Tenaska Central Alabama Gen Station,32.649700,-86.740000,NG,927.10,5185641.00,2416326.86
217,AL,Tenaska Lindsay Hill Generating Station,32.651400,-86.738600,NG,939.40,2905517.00,1244587.54
218,AL,Theodore Cogeneration,30.525445,-88.128477,NG,317.40,1272659.00,462287.09
219,AL,Thurlow Dam,32.535436,-85.887614,WAT,91.00,200640.00,0.00
220,AL,U S Alliance Coosa Pines,33.328107,-86.356825,BLQ,55.40,134783.00,13039.18
221,AL,US Steel (Fairfield Works),33.488500,-86.921200,PRG,82.00,0.00,0.00
222,AL,Walter Bouldin Dam,32.583889,-86.283056,WAT,225.00,468960.00,0.00
223,AL,Walton Discover Power Facility,32.540980,-85.038879,NG,103.00,19268.00,14291.11
224,AL,Washington County Cogen (Olin),31.250400,-88.015600,NG,122.50,718606.00,284186.28
225,AL,Weiss Dam,34.172142,-85.753806,WAT,87.60,164092.00,0.00
226,AL,Westervelt Moundville Cogen,32.960714,-87.655419,WDS,8.80,39791.00,489.77
227,AL,Weyerhaeuser Pine Hill Operations,31.969800,-87.480600,BLQ,77.40,476045.00,21140.45
228,AL,Wheeler Dam,34.806900,-87.381900,WAT,404.00,1014935.00,0.00
229,AL,Widows Creek,34.883022,-85.755253,BIT,1968.60,0.00,0.00
230,AL,Wilson Dam,34.797820,-87.625370,WAT,666.70,1809161.00,0.00
231,AL,Yates Dam,32.574300,-85.890100,WAT,50.50,116654.00,0.00
232,AL,Yellowhammer Gas Plant,30.403538,-88.128330,NG,3.40,17476.00,17605.02
233,AR,Archer Daniels Midland Little Rock,34.700000,-92.199722,NG,4.00,0.00,0.00
234,AR,Arkansas Nuclear One,35.311000,-93.235100,NUC,1845.00,13421022.00,0.00
235,AR,Ashdown,33.641700,-94.108300,BLQ,156.50,573418.00,55500.84
236,AR,Beaver Dam,36.421507,-93.847373,WAT,112.00,164928.00,0.00
237,AR,Blakely Mountain,34.570984,-93.194425,WAT,75.00,223819.00,0.00
238,AR,Bull Shoals,36.363500,-92.576300,WAT,340.00,875676.00,0.00
239,AR,Carl Bailey,35.260102,-91.363426,NG,120.00,16219.00,11189.35
240,AR,Carpenter,34.442500,-93.026200,WAT,56.00,70029.00,0.00
241,AR,Cecil Lynch,34.753500,-92.198700,,231.00,0.00,0.00
242,AR,City Water & Light - City of Jonesboro,35.848561,-90.725377,NG,224.30,67723.00,37752.98
243,AR,Clearwater Paper APP CB,33.706100,-91.237100,BLQ,28.00,99202.00,10384.61
244,AR,Columbia Flooring Melbourne,36.060514,-91.919802,WDS,2.00,2289.20,28.86
245,AR,Dam 2,33.986501,-91.315788,WAT,102.60,378865.00,0.00
246,AR,Dardanelle,35.250300,-93.168600,WAT,160.80,664117.00,0.00
247,AR,Degray,34.211913,-93.110963,WAT,68.00,106751.00,0.00
248,AR,Dell Power Plant,35.861900,-90.025300,NG,679.10,735515.00,349741.31
249,AR,Elkins Generating Center,35.971400,-94.001400,NG,66.00,7805.00,5694.98
250,AR,Ellis Hydro,35.351361,-94.294349,WAT,32.40,138536.00,0.00
251,AR,Flint Creek Power Plant,36.256100,-94.524100,SUB,558.00,2041334.00,2407859.78
252,AR,Fourche Creek Wastewater,34.696800,-92.165000,OBG,2.80,5571.00,296.77
253,AR,Fulton,33.609400,-93.792400,NG,154.80,48100.00,30188.81
254,AR,Genova Arkansas I LLC,36.186111,-94.284166,NG,631.40,0.00,0.00
255,AR,Georgia-Pacific Crossett LLC,33.142100,-91.975000,BLQ,91.60,505599.87,56005.24
256,AR,Greers Ferry Lake,35.520700,-91.995300,WAT,96.00,198122.00,0.00
257,AR,Hamilton Moses,34.980600,-90.872200,NG,138.00,0.00,0.00
258,AR,Harry D. Mattison Power Plant,36.185500,-94.284100,NG,349.00,117273.00,89238.05
259,AR,Harvey Couch,33.359200,-93.464900,NG,182.70,0.00,0.00
260,AR,Hot Spring  Energy Facility,34.297590,-92.868344,NG,1429.70,2964241.00,1214374.42
261,AR,Independence,35.678442,-91.408761,SUB,1800.00,7704239.00,8300170.57
262,AR,John W. Turk Jr. Power Plant,33.649722,-93.811944,SUB,609.00,3748751.00,3764882.12
263,AR,Lake Catherine,34.434100,-92.904900,NG,752.00,332156.00,226751.14
264,AR,Lee Creek Water Treatment Facility,35.484488,-94.392858,WAT,1.30,0.00,0.00
265,AR,Mabelvale,34.635997,-92.409602,NG,78.00,0.00,0.00
266,AR,Magnet Cove Generating Station,34.429700,-92.831700,NG,746.00,2046994.00,884486.80
267,AR,McClellan,33.564800,-92.791700,NG,136.00,61314.00,46347.12
268,AR,Municipal Light,36.385800,-90.186700,DFO,7.20,0.00,0.00
269,AR,Murray,34.795600,-92.356900,WAT,45.40,147872.00,0.00
270,AR,Narrows (AR),34.148427,-93.715168,WAT,25.50,46537.00,0.00
271,AR,Norfork,36.249100,-92.240100,WAT,80.40,233281.00,0.00
272,AR,Osceola (AR),35.689300,-89.994000,DFO,9.60,0.00,0.00
273,AR,Oswald Generating Station,34.592300,-92.216600,NG,599.50,519479.00,251571.02
274,AR,Ozark,35.469300,-93.817500,WAT,100.00,103533.00,0.00
275,AR,Ozarks Natural Energy,36.164296,-94.082269,SUN,1.00,1600.00,0.00
276,AR,Paragould,36.060556,-90.521389,DFO,4.10,0.00,0.00
277,AR,Paragould Reciprocating,36.024200,-90.509400,NG,19.20,354.00,206.92
278,AR,Paragould Turbine,36.024272,-90.509229,NG,13.90,41.00,33.41
279,AR,Pine Bluff Energy Center,34.218100,-91.902500,NG,236.00,1212971.00,401452.84
280,AR,Pine Bluff Mill,34.221213,-91.907365,BLQ,85.00,414473.00,10014.83
281,AR,Plum Point Energy Station,35.664400,-89.948900,SUB,720.00,4605320.00,4824512.70
282,AR,Remmel,34.427200,-92.894100,WAT,9.00,42767.00,0.00
283,AR,Riceland Foods Cogeneration Plant,34.513600,-91.533100,OBS,18.00,43440.00,560.48
284,AR,Robert E Ritchie,34.462900,-90.598700,NG,923.10,0.00,0.00
285,AR,SR Camden,33.631538,-92.703611,SUN,12.00,24542.00,0.00
286,AR,Stuttgart Solar,34.439722,-91.440000,SUN,81.00,0.00,0.00
287,AR,Thomas Fitzhugh,35.462382,-93.804926,NG,185.00,255902.00,137008.37
288,AR,Two Pine Landfill Gas Recovery,34.833200,-92.157103,LFG,4.80,33799.00,0.00
289,AR,UA Central Utility Plant,36.066336,-94.172254,NG,5.60,37742.00,23582.15
290,AR,Union Power Station,33.296146,-92.589364,NG,2428.00,9459445.00,4014569.98
291,AR,Warren Lumber Mill,33.620600,-92.078889,WDS,15.00,0.00,0.00
292,AR,Waste Management Eco Vista LFGTE,36.140849,-94.259713,LFG,4.00,30837.00,0.00
293,AR,Whillock,35.127591,-92.790273,WAT,32.40,169672.00,0.00
294,AR,White Bluff,34.422800,-92.140600,SUB,1800.00,5697538.00,6773189.19
295,AR,White River Lock and Dam 1,35.757401,-91.636887,WAT,4.30,6005.00,0.00
296,AR,White River Lock and Dam 2,35.744036,-91.765418,WAT,3.50,15966.00,0.00
297,AR,White River Lock and Dam 3,35.843610,-91.850521,WAT,4.30,22334.00,0.00
298,AZ,Actus Lend Lease DMAFB,32.182500,-110.863333,SUN,3.00,4481.00,0.00
299,AZ,Agua Caliente Solar Project,32.977400,-113.494500,SUN,637.70,743533.00,0.00
300,AZ,Agua Fria Generating Station,33.556100,-112.215300,NG,613.50,84854.00,66926.45
301,AZ,Amonix UASTP Solar Power Station,32.108147,-110.824662,SUN,1.90,1036.00,0.00
302,AZ,Amphitheater High School Solar,32.269000,-110.975000,SUN,1.00,77.00,0.00
303,AZ,Apache Solar 1,32.068141,-109.890379,SUN,20.00,0.00,0.00
304,AZ,Apache Station,32.060300,-109.893100,SUB,660.70,2068779.00,2425133.41
305,AZ,APS Saguaro Power Plant,32.551700,-111.300000,NG,435.50,15748.00,10876.29
306,AZ,APS West Phoenix Power Plant,33.441700,-112.158300,NG,1326.90,2570029.00,1060214.40
307,AZ,Arizona State University CHP,33.417222,-111.928333,NG,9.20,50187.00,15427.45
308,AZ,Arizona Western College PV,32.687778,-114.496110,SUN,5.70,9854.00,0.00
309,AZ,Arlington Valley Energy Facility,33.341700,-112.889700,NG,713.00,1885829.00,832398.05
310,AZ,Arlington Valley Solar Energy I,33.321667,-112.880555,SUN,127.00,0.00,0.00
311,AZ,Arlington Valley Solar Energy II,33.305000,-112.833888,SUN,129.00,364396.00,0.00
312,AZ,Avalon Solar,32.001389,-110.960556,SUN,29.00,79764.00,0.00
313,AZ,Avalon Solar II,32.000854,-110.958427,SUN,16.00,38231.00,0.00
314,AZ,Avra Valley Solar,32.371667,-111.282777,SUN,26.50,74846.00,0.00
315,AZ,Badger 1,33.498003,-112.813458,SUN,14.80,41342.00,0.00
316,AZ,Black Mountain Generating Station,35.036100,-114.159400,NG,121.00,56868.00,35176.42
317,AZ,Black Mountain Solar LLC,35.022700,-114.162700,SUN,9.00,20652.00,0.00
318,AZ,Bonnybrooke PV,33.053000,-111.340000,SUN,50.00,12278.00,0.00
319,AZ,Buckeye Generation Center LLC,33.230833,-112.626389,NG,652.20,0.00,0.00
320,AZ,Buckeye Union HS District 201,33.419167,-112.576111,SUN,3.30,7398.00,0.00
321,AZ,Canyon Del Oro High School Solar,32.374000,-110.974000,SUN,1.50,15.00,0.00
322,AZ,Childs,34.351111,-111.700556,WAT,5.40,0.00,0.00
323,AZ,Chino Solar Valley,34.718430,-112.428990,SUN,19.00,45734.00,0.00
324,AZ,Cholla,34.939400,-110.303300,SUB,1128.80,2432167.00,3034143.49
325,AZ,Cogeneration 1,32.229922,-110.952797,NG,9.00,54338.43,16466.35
326,AZ,Cogeneration 2,32.240833,-110.948333,NG,6.00,36816.35,11066.79
327,AZ,Cogenra - TEP,32.101944,-110.813333,SUN,1.00,2100.00,0.00
328,AZ,Concord Blue Eagar LLC,34.114940,-109.375030,OBG,1.20,0.00,0.00
329,AZ,Coolidge Generating Station,32.917399,-111.503327,NG,726.00,167696.00,98673.65
330,AZ,Copper Crossing Energy Center,33.155120,-111.483636,NG,1779.00,0.00,0.00
331,AZ,Copper Crossing Solar LLC,33.160601,-111.484011,SUN,20.00,54194.00,0.00
332,AZ,Coronado Generating Station,34.578900,-109.270800,RC,821.80,4924949.00,6200915.15
333,AZ,Cotton Center Solar,33.034722,-112.661667,SUN,17.00,38993.00,0.00
334,AZ,Crosscut,33.439375,-111.946052,,33.00,0.00,0.00
335,AZ,Davis Dam,35.197044,-114.570669,WAT,254.80,1118857.00,0.00
336,AZ,Davis Monthan AFB (AZ) West Airfield,32.173560,-110.899734,SUN,12.60,0.00,0.00
337,AZ,De Moss Petrie Generating Station,32.252273,-110.992148,NG,95.00,5324.00,5059.60
338,AZ,Desert Basin Generating Station,32.904200,-111.788900,NG,646.10,1154728.00,550490.10
339,AZ,Dolan Springs,35.610000,-114.260000,WND,300.00,0.00,0.00
340,AZ,Douglas,31.364122,-109.553800,DFO,26.10,84.00,223.36
341,AZ,Dry Lake Solar,34.513333,-110.078333,SUN,50.00,0.00,0.00
342,AZ,Dry Lake Wind II LLC,34.606200,-110.173400,WND,65.10,116380.00,0.00
343,AZ,Dry Lake Wind LLC,34.659600,-110.284200,WND,63.00,112321.00,0.00
344,AZ,FirstEnergy,33.935833,-113.555000,NG,1080.00,0.00,0.00
345,AZ,Foothills Solar Plant,32.648560,-114.428741,SUN,35.00,96915.00,0.00
346,AZ,Fort Huachuca Solar PV Project,31.555278,-110.350000,SUN,18.00,31257.00,0.00
347,AZ,Gato Montes Solar LLC,32.102778,-110.819722,SUN,5.00,9973.00,0.00
348,AZ,Gila Bend,32.940833,-112.881389,SUN,32.00,102975.00,0.00
349,AZ,Gila Bend Power Generation Station,32.985977,-112.811009,NG,1120.00,0.00,0.00
350,AZ,Gila River Power Station,32.975000,-112.694400,NG,1857.00,6909105.00,3211576.98
351,AZ,Gilbert Solar Facility I LLC,33.355862,-111.802355,SUN,2.50,4261.00,0.00
352,AZ,Gillespie 1,33.026389,-112.665833,SUN,15.00,44136.00,0.00
353,AZ,Glen Canyon Dam,36.936614,-111.483872,WAT,1312.00,4016225.00,0.00
354,AZ,Glendale Energy Power Plant,33.540324,-112.306361,LFG,2.80,15475.00,0.00
355,AZ,Gray Hawk Solar,35.363500,-113.897800,SUN,55.00,0.00,0.00
356,AZ,Griffith Energy Project,35.054029,-114.133272,NG,655.00,2086732.00,917373.37
357,AZ,Headgate Rock,34.168264,-114.277356,WAT,19.50,75735.00,0.00
358,AZ,Hoover Dam (AZ),36.015510,-114.738006,WAT,1039.40,1818612.00,0.00
359,AZ,Horse Mesa,33.590700,-111.344000,WAT,129.50,45429.00,0.00
360,AZ,Hyder II,33.027000,-113.348900,SUN,14.00,37104.00,0.00
361,AZ,Hyder Solar,33.025660,-113.343970,SUN,22.00,40655.00,0.00
362,AZ,Intel - Ocotillo Campus Solar,33.243261,-111.892354,SUN,4.20,0.00,0.00
363,AZ,IRC Generator Facility,36.970800,-112.526400,DFO,3.00,-21.00,15.73
364,AZ,Iron Horse Battery Storage,32.098492,-110.819119,,12.00,0.00,0.00
365,AZ,Irving,34.402222,-111.617222,WAT,1.60,0.00,0.00
366,AZ,Irvington Generating Station,32.160000,-110.904700,NG,558.50,777277.00,545793.62
367,AZ,Jacobson 5 MW Solar,35.304528,-114.014747,SUN,4.40,0.00,0.00
368,AZ,Jewish Community Center PV,33.603056,-111.924722,SUN,1.10,2227.00,0.00
369,AZ,Kayenta Solar Project,36.771944,-110.263889,SUN,27.30,0.00,0.00
370,AZ,Kingman 1,35.145833,-114.067500,WND,10.50,24935.00,0.00
371,AZ,Kyrene Generating Station,33.355600,-111.935300,NG,573.70,1198000.00,522952.97
372,AZ,La Paz Solar Tower,33.917222,-114.267500,SUN,200.00,0.00,0.00
373,AZ,La Senita,35.241675,-114.004591,SUN,1.00,2511.00,0.00
374,AZ,Lake Pleasant WTP,33.820556,-112.240000,SUN,6.50,15235.00,0.00
375,AZ,Luke Solar,33.526111,-112.379440,SUN,15.00,0.00,0.00
376,AZ,Macys Goodyear,33.409063,-112.414596,SUN,3.50,5315.00,0.00
377,AZ,Maricopa County Community Colleges- Estr,33.409803,-112.340297,SUN,1.70,0.00,0.00
378,AZ,Mesa Solar Array,33.346944,-111.603056,SUN,4.00,0.00,0.00
379,AZ,Mesquite Generating Station,33.345000,-112.864167,NG,1383.20,4487692.00,1974238.87
380,AZ,Mesquite Solar 1,33.341833,-112.904028,SUN,170.00,408250.00,0.00
381,AZ,Mesquite Solar 2 LLC,33.332777,-112.911388,SUN,100.00,13255.00,0.00
382,AZ,Mesquite Solar 3 LLC,33.347583,-112.936805,SUN,150.00,21060.00,0.00
383,AZ,Mohave Electric at Fort Mohave,34.984300,-114.556500,SUN,14.40,14636.00,0.00
384,AZ,Mormon Flat,33.553600,-111.443100,WAT,63.50,22336.00,0.00
385,AZ,Navajo Generating Station,36.904700,-111.388600,BIT,2409.30,12058583.00,14068343.79
386,AZ,New Harquahala Generating Company LLC,33.475960,-113.113434,NG,1325.10,3373732.00,1396922.56
387,AZ,North Loop,32.401000,-111.126200,NG,107.80,934.00,0.76
388,AZ,Northwest Regional,33.681944,-112.476666,LFG,3.20,22767.00,0.00
389,AZ,Novo BioPower Plant,34.503158,-110.334953,WDS,27.20,176574.00,7972.53
390,AZ,Ocotillo Power Plant,33.422500,-111.912200,NG,1143.50,136005.00,99903.88
391,AZ,Palo Verde,33.388100,-112.861700,NUC,4209.60,32377477.00,0.00
392,AZ,Paloma Solar,33.021111,-112.661389,SUN,17.60,37662.00,0.00
393,AZ,Paradise Valley H.S. PV,33.641600,-111.999700,SUN,1.30,2607.00,0.00
394,AZ,PB2 - Gila River,32.975000,-112.694444,NG,619.00,119891.00,46024.32
395,AZ,Perrin Ranch Wind LLC,35.415556,-112.271111,WND,99.20,222162.00,0.00
396,AZ,Phoenix Airport East Economy Lot,33.450000,-111.980000,SUN,1.10,2072.00,0.00
397,AZ,Phoenix Airport Rental Car Center,33.450000,-111.980000,SUN,1.60,6495.00,0.00
398,AZ,Picture Rocks Solar LLC,32.369722,-111.242778,SUN,20.00,55748.00,0.00
399,AZ,Pima Community College,32.146142,-110.990639,SUN,1.30,0.00,0.00
400,AZ,Pima Energy Storage System,32.251647,-110.991333,MWH,10.00,0.00,0.00
401,AZ,Prairie Fire,32.116389,-110.820000,SUN,4.50,8886.00,0.00
402,AZ,Prescott Airport,34.658400,-112.400800,SUN,9.10,5432.00,0.00
403,AZ,Prescott Solar Plant,34.649444,-112.427500,SUN,10.80,26142.00,0.00
404,AZ,Queen Creek Solar Farm,33.267500,-111.612222,SUN,19.00,52143.00,0.00
405,AZ,RE Ajo 1 LLC,32.367013,-112.831401,SUN,4.50,9224.00,0.00
406,AZ,RE Bagdad Solar I LLC,34.585833,-113.177222,SUN,16.60,34860.00,0.00
407,AZ,Red Horse 2,32.286111,-110.088056,SUN,81.00,220108.00,0.00
408,AZ,Red Horse III,32.135970,-110.051290,SUN,30.00,38278.00,0.00
409,AZ,Red Rock,32.551026,-111.289232,SUN,40.00,0.00,0.00
410,AZ,Redhawk Generating Facility,33.334562,-112.840641,NG,1140.30,5158899.00,2281840.55
411,AZ,Rio Rico Solar,31.500000,-111.008056,SUN,6.00,11951.00,0.00
412,AZ,Roger Road WWTP,32.289400,-111.033100,SUN,1.10,1810.00,0.00
413,AZ,Roosevelt,33.671104,-111.161786,WAT,36.00,58948.00,0.00
414,AZ,Saddle Mountain Solar I,33.378333,-113.180833,SUN,15.00,47762.00,0.00
415,AZ,Sandstone Solar,33.035556,-111.430278,SUN,45.00,121501.00,0.00
416,AZ,Santan,33.332500,-111.750300,NG,1326.00,2985179.00,1063254.84
417,AZ,Solana Generating Station,32.922294,-112.955940,SUN,280.00,643670.00,0.00
418,AZ,South Consolidated,33.466477,-111.781064,WAT,1.40,0.00,0.00
419,AZ,South Point Energy Center LLC,34.867800,-114.531700,NG,708.00,100404.00,46914.09
420,AZ,Springerville Generating Station,34.318600,-109.163900,SUB,2179.20,9147059.00,9978490.67
421,AZ,SR85,33.145000,-112.660000,SUN,10.00,8924.00,0.00
422,AZ,Stewart Mountain,33.566100,-111.536000,WAT,13.00,27419.00,0.00
423,AZ,Sulphur Springs,32.062800,-109.919283,SUN,20.00,4656.00,0.00
424,AZ,Sun Streams LLC,33.348840,-112.834800,SUN,150.00,0.00,0.00
425,AZ,Sundance Power Plant,32.928500,-111.589900,NG,695.00,234372.00,163636.48
426,AZ,T0588 Phoenix - AZ,33.447225,-112.217664,SUN,1.20,0.00,0.00
427,AZ,TAA Solar Facility,32.115833,-110.940833,SUN,2.80,0.00,0.00
428,AZ,Tech Park Solar,32.097884,-110.815696,SUN,5.00,13055.00,0.00
429,AZ,Tri Cities,33.483300,-111.817200,LFG,5.00,0.00,0.00
430,AZ,UASTP I,32.096973,-110.810600,SUN,1.20,1402.00,0.00
431,AZ,UASTP II,32.096973,-110.810600,SUN,14.00,8972.00,0.00
432,AZ,Union HS at Casa Grande,32.936944,-111.738611,SUN,1.60,3404.00,0.00
433,AZ,University of Arizona - Biosphere 2,32.578011,-110.852608,NG,3.10,49.00,68.11
434,AZ,Valencia,31.363472,-110.931343,NG,108.00,620.00,584.89
435,AZ,Valencia Solar,32.145833,-110.866944,SUN,10.00,23552.00,0.00
436,AZ,Vista Grande HS at Casa Grande,32.891389,-111.713056,SUN,1.80,3095.00,0.00
437,AZ,Waddell,33.844700,-112.271400,WAT,40.00,42832.00,0.00
438,AZ,Walmart Casa Grande,32.866837,-111.771751,SUN,2.00,3228.00,0.00
439,AZ,Western Renewable Energy,34.093006,-109.289979,WDS,3.00,0.00,0.00
440,AZ,White Wing Solar,32.994056,-113.508806,SUN,200.00,0.00,0.00
441,AZ,Yucca Power Plant,32.721400,-114.710600,NG,425.00,360704.00,254765.05
442,AZ,Yuma Cogeneration Associates,32.728822,-114.654053,NG,62.60,11206.00,2214.79
443,CA,1420 Coil Av #C,33.794283,-118.241405,SUN,1.30,1592.00,0.00
444,CA,2081 Terzian Solar Project,36.670000,-119.415833,SUN,1.20,2601.00,0.00
445,CA,2097 Helton Solar Project,37.352222,-120.506944,SUN,1.50,3798.00,0.00
446,CA,2127 Harris Solar Project,39.291667,-121.669722,SUN,1.30,2712.00,0.00
447,CA,2555 E Olympic Bl,34.026944,-118.224167,SUN,1.00,1780.00,0.00
448,CA,85 A,35.101100,-118.337200,WND,14.10,16012.00,0.00
449,CA,85 B,35.101100,-118.337200,WND,21.20,20601.00,0.00
450,CA,A G Wishon,37.151050,-119.504724,WAT,12.80,34315.00,0.00
451,CA,ABEC Bidart-Old River LLC,35.169722,-119.105556,OBG,2.00,10899.00,6.75
452,CA,Adelanto Solar II LLC,34.557222,-117.377500,SUN,7.00,17202.00,0.00
453,CA,Adelanto Solar Project,34.550833,-117.435277,SUN,10.00,16245.00,0.00
454,CA,Adelanto Solar LLC,34.557222,-117.377500,SUN,20.00,57181.00,0.00
455,CA,Adera Solar,37.120586,-120.324880,SUN,20.00,37763.00,0.00
456,CA,Adobe San Jose,37.330556,-121.893056,NG,1.20,8774.00,0.00
457,CA,Aera San Ardo Cogen Facility,35.953293,-120.859952,NG,6.20,48917.00,15965.24
458,CA,Aera South Belridge Cogen Facility,35.429200,-119.686400,NG,9.00,0.00,0.00
459,CA,Aerojet I,38.613508,-121.162879,SUN,3.00,5725.00,0.00
460,CA,Aerojet II,38.608600,-121.170300,SUN,2.70,3861.00,0.00
461,CA,AES Alamitos,33.768800,-118.100900,NG,2055.00,889395.00,661294.23
462,CA,AES ES ALAMITOS LLC,33.770202,-118.099665,MWH,100.00,0.00,0.00
463,CA,AES Huntington Beach,33.643900,-117.979200,NG,1021.00,486191.00,328921.54
464,CA,AES Redondo Beach,33.850400,-118.395000,NG,1316.40,320555.00,235240.86
465,CA,Agnews Power Plant,37.405800,-121.927200,NG,32.00,16640.00,8498.05
466,CA,Agua Mansa Power,34.041400,-117.360300,NG,60.50,6466.00,3949.46
467,CA,Aidlin Geothermal Power Plant,38.833900,-122.881000,GEO,25.00,125286.00,15051.24
468,CA,Alameda,37.788600,-122.288900,NG,54.80,3574.00,3173.67
469,CA,Alamo,34.815800,-118.686700,WAT,19.60,67000.00,0.00
470,CA,Alamo Solar,34.682222,-117.347500,SUN,20.00,52591.00,0.00
471,CA,Algonquin Power Sanger LLC,36.684200,-119.552200,NG,74.00,120258.00,47814.10
472,CA,Algonquin SKIC 10 Solar LLC,35.126111,-119.243361,SUN,10.00,0.00,0.00
473,CA,Algonquin SKIC20 Solar LLC,35.126111,-119.243333,SUN,20.00,45907.00,0.00
474,CA,Aliso Water Management Agency,33.537922,-117.705850,OBG,1.20,6.00,0.76
475,CA,Almond Power Plant,37.574400,-120.985000,NG,223.50,111901.00,70398.05
476,CA,Alpaugh 50,35.898333,-119.435278,SUN,50.00,133296.00,0.00
477,CA,Alpaugh North,35.902500,-119.442778,SUN,20.00,52471.00,0.00
478,CA,Alpine Solar,34.789200,-118.504700,SUN,132.00,165117.00,0.00
479,CA,Alta Mesa Project Phase IV,33.946389,-116.663333,WND,40.00,0.00,0.00
480,CA,Alta Powerhouse,39.215979,-120.803550,WAT,2.00,3123.00,0.00
481,CA,Alta Wind Energy Center I,35.033725,-118.353422,WND,150.00,413363.00,0.00
482,CA,Alta Wind Energy Center II,35.023889,-118.295278,WND,150.00,360216.00,0.00
483,CA,Alta Wind Energy Center III,35.023889,-118.295278,WND,150.00,380465.00,0.00
484,CA,Alta Wind Energy Center IV,35.008611,-118.242222,WND,102.00,183393.00,0.00
485,CA,Alta Wind Energy Center V,35.008611,-118.242222,WND,168.00,293378.00,0.00
486,CA,Alta Wind VIII,35.026683,-118.234811,WND,150.00,294789.00,0.00
487,CA,Alta Wind X,35.060000,-118.200000,WND,138.00,364926.00,0.00
488,CA,Alta Wind XI,35.065000,-118.390000,WND,90.00,276368.00,0.00
489,CA,AltaGas Pomona Energy Inc.,34.059444,-117.774167,NG,66.00,3190.00,1854.39
490,CA,AltaGas Ripon Energy Inc.,37.732533,-121.116006,NG,49.50,10941.00,6389.98
491,CA,Altamont Gas Recovery,37.749308,-121.649866,LFG,8.60,45492.00,0.00
492,CA,Altamont Midway Ltd,37.739200,-121.432200,WND,10.90,0.00,0.00
493,CA,Altech III,33.915023,-116.555064,WND,25.10,30957.00,0.00
494,CA,Alvarado Hydro Facility,32.781400,-117.041100,WAT,2.10,0.00,0.00
495,CA,Amazon - Patterson PV,37.468888,-121.166326,SUN,1.30,0.00,0.00
496,CA,Amazon San Bernardino,34.088408,-117.245839,NG,1.10,7923.00,0.00
497,CA,Amedee Geothermal Venture I,40.300833,-120.105000,GEO,3.00,0.00,0.00
498,CA,Ameresco Butte County,39.674000,-121.730000,LFG,2.30,15857.00,0.00
499,CA,Ameresco Chiquita Canyon,34.431664,-118.642855,LFG,9.20,48046.00,0.00
500,CA,Ameresco Forward,37.883406,-121.185104,LFG,4.40,32649.00,0.00
501,CA,Ameresco Johnson Canyon,36.534167,-121.408611,LFG,1.40,10460.00,0.00
502,CA,Ameresco Keller Canyon,38.003928,-121.934491,LFG,3.80,30295.00,0.00
503,CA,Ameresco Ox Mountain,37.500000,-122.400000,LFG,11.40,85387.00,0.00
504,CA,Ameresco San Joaquin,38.029722,-120.929722,LFG,4.40,26786.00,0.00
505,CA,Ameresco Santa Cruz Energy,36.917800,-121.815600,LFG,3.00,19626.00,0.00
506,CA,Ameresco Vasco Road,37.754444,-121.728889,LFG,4.40,33251.00,0.00
507,CA,American Kings Solar LLC,36.240000,-119.898000,SUN,123.00,0.00,0.00
508,CA,Ampersand Chowchilla Biomass LLC,37.106668,-120.248504,WDS,12.50,68912.00,2992.02
509,CA,Anaheim Combustion Turbine,33.853542,-117.856286,NG,49.20,123093.00,22928.58
510,CA,Anaheim Solar Energy Plant,33.802500,-117.919722,SUN,2.10,3389.00,0.00
511,CA,Angels,38.071944,-120.539444,WAT,1.40,5833.00,0.00
512,CA,Anheuser-Busch #2,38.233611,-122.092500,WND,1.60,3936.00,0.00
513,CA,Antelope Big Sky Ranch,34.694839,-118.287690,SUN,20.00,17070.00,0.00
514,CA,Antelope DSR 1,34.655556,-118.280722,SUN,50.00,6690.00,0.00
515,CA,Antelope DSR 2,34.686944,-118.311722,SUN,5.00,1388.00,0.00
516,CA,Antelope DSR 3,34.736859,-118.304071,SUN,20.00,0.00,0.00
517,CA,Antelope Expansion 2,34.744977,-118.309153,SUN,105.00,0.00,0.00
518,CA,AP North Lake I LP,33.740000,-117.010556,SUN,20.00,0.00,0.00
519,CA,Apple Campus 2 Fuel Cell,37.330000,-122.010000,OBG,4.00,0.00,0.00
520,CA,Apple Campus 2 PV,37.330000,-122.010000,SUN,14.40,0.00,0.00
521,CA,Argus Cogen Plant,35.765000,-117.383300,RC,62.50,325958.00,189704.57
522,CA,Arrache 4006,34.655000,-118.051111,SUN,2.00,2835.00,0.00
523,CA,Arrache 4013,34.650556,-118.051944,SUN,1.50,4410.00,0.00
524,CA,Arrache 8083,34.647778,-118.061111,SUN,4.00,3567.00,0.00
525,CA,Aspiration G,36.552186,-120.352481,SUN,9.00,0.00,0.00
526,CA,ASTI,38.761389,-122.975278,SUN,1.00,1541.00,0.00
527,CA,AT&T Anaheim,33.836439,-117.916893,NG,1.30,2728.00,0.00
528,CA,AT&T Holger,37.417638,-121.944530,NG,1.30,4229.00,0.00
529,CA,Atwell Island,35.895000,-119.510833,SUN,20.20,41255.00,0.00
530,CA,Atwell Island West Solar,35.815000,-119.459722,SUN,20.00,56979.00,0.00
531,CA,AV Solar Ranch One,34.780278,-118.424440,SUN,253.00,614294.00,0.00
532,CA,Avenal Park,35.989722,-120.110000,SUN,6.00,12761.00,0.00
533,CA,AVS Lancaster 1,34.748894,-117.973571,SUN,3.70,0.00,0.00
534,CA,Azusa,34.154800,-117.909300,WAT,3.00,0.00,0.00
535,CA,B Braun Medical,33.688721,-117.834793,NG,6.10,36550.00,11671.35
536,CA,Badger Creek Limited,35.483736,-119.029856,NG,46.00,3339.00,0.00
537,CA,Baker Creek Hydroelectric,40.526389,-123.725556,WAT,1.50,4085.00,0.00
538,CA,Bakersfield 111,35.317551,-118.989894,SUN,1.40,3323.00,0.00
539,CA,Bakersfield College Solar 01,35.411817,-118.968640,SUN,1.10,2046.00,0.00
540,CA,Bakersfield Industrial PV 1,35.330032,-118.993119,SUN,1.00,0.00,0.00
541,CA,Bakersfield PV 1,35.324982,-118.981522,SUN,5.30,0.00,0.00
542,CA,Balch 1,36.909137,-119.087712,WAT,31.00,132644.00,0.00
543,CA,Balch 2,36.908907,-119.087556,WAT,97.20,331916.00,0.00
544,CA,Barre Generating Station,33.807300,-117.983200,NG,49.80,28750.00,17170.21
545,CA,Bayshore Solar A LLC,34.667817,-118.298089,SUN,20.00,0.00,0.00
546,CA,Bayshore Solar B LLC,34.678305,-118.302649,SUN,20.00,0.00,0.00
547,CA,Bayshore Solar C LLC,34.681338,-118.314087,SUN,20.00,0.00,0.00
548,CA,Beacon BESS 1,35.256526,-118.027519,MWH,20.00,0.00,0.00
549,CA,Beacon Solar Plant Site 2,35.265833,-117.999167,SUN,48.00,0.00,0.00
550,CA,Beacon Solar Plant Site 5,35.248889,-118.034444,SUN,40.00,0.00,0.00
551,CA,Bear Canyon Power Plant,38.762968,-122.692915,GEO,24.40,0.00,0.00
552,CA,Bear Creek,40.534454,-121.959109,WAT,3.20,6078.00,0.00
553,CA,Bear Creek Solar,38.136389,-121.148889,SUN,1.50,3722.00,0.00
554,CA,Bear Mountain Limited,35.419181,-118.926643,NG,46.00,8073.00,0.00
555,CA,Bear Valley,33.166246,-117.016566,WAT,1.40,806.00,0.00
556,CA,Bear Valley Power Plant,34.250600,-116.902500,NG,8.40,-36.00,371.84
557,CA,Beardsley,38.202569,-120.076983,WAT,10.00,68443.00,0.00
558,CA,Belden,40.007445,-121.249438,WAT,117.90,181578.00,0.00
559,CA,Beringer,38.510833,-122.479722,SUN,1.20,1629.00,0.00
560,CA,Berry Cogen,35.093046,-119.443617,NG,38.70,310119.00,98300.86
561,CA,Berry Cogen Tanne Hills 18,35.089829,-119.440881,NG,17.60,135146.00,43762.84
562,CA,Berry Placerita Cogen,34.384070,-118.494882,NG,42.80,304058.00,100839.16
563,CA,Bidwell Ditch Project,40.801400,-121.448100,WAT,1.80,10103.00,0.00
564,CA,Big Creek 1,37.204200,-119.239600,WAT,88.40,282180.00,0.00
565,CA,Big Creek 2,37.200000,-119.306900,WAT,66.60,332639.00,0.00
566,CA,Big Creek 2A,37.200062,-119.306810,WAT,110.00,359244.00,0.00
567,CA,Big Creek 3,37.148517,-119.386623,WAT,174.50,763372.00,0.00
568,CA,Big Creek 4,37.139000,-119.489800,WAT,100.00,378638.00,0.00
569,CA,Big Creek 8,37.209600,-119.328900,WAT,75.00,212772.00,0.00
570,CA,Big Creek Water Works,40.646733,-123.498008,WAT,5.00,10436.00,0.00
571,CA,Big Pine Creek,37.142795,-118.324075,WAT,3.20,1484.00,0.00
572,CA,Big Valley Power LLC,41.132500,-121.137222,WDS,9.30,0.00,0.00
573,CA,Biola University,33.906953,-118.013105,NG,2.20,12885.00,3897.22
574,CA,Bishop Creek 2,37.273581,-118.573339,WAT,7.30,24861.00,0.00
575,CA,Bishop Creek 3,37.301962,-118.531957,WAT,8.40,22880.00,0.00
576,CA,Bishop Creek 4,37.323035,-118.501714,WAT,8.20,23688.00,0.00
577,CA,Bishop Creek 5,37.334400,-118.479700,WAT,4.50,10842.00,0.00
578,CA,Bishop Creek 6,37.349900,-118.462800,WAT,1.60,8024.00,0.00
579,CA,Black Butte,39.814905,-122.332335,WAT,6.10,9463.00,0.00
580,CA,Black Rock I,33.159400,-115.614400,GEO,70.00,0.00,0.00
581,CA,Black Rock II,33.159400,-115.614400,GEO,70.00,0.00,0.00
582,CA,Black Rock III,33.159400,-115.614400,GEO,70.00,0.00,0.00
583,CA,Blacksand Generating Facility,33.932800,-117.855000,OG,8.00,28518.00,26301.15
584,CA,Blackwell Solar Park,35.604167,-119.849722,SUN,20.00,0.00,0.00
585,CA,Blue Lake Power LLC,40.878600,-123.994200,WDS,13.80,50.00,135.23
586,CA,Blythe Energy,33.615700,-114.686500,NG,591.00,862724.00,380328.56
587,CA,Blythe Solar 110 LLC,33.680000,-114.742000,SUN,109.80,211331.00,0.00
588,CA,Blythe Solar II LLC,33.680000,-114.730000,SUN,131.20,101510.00,0.00
589,CA,Blythe Solar III LLC,33.656000,-114.742000,SUN,124.80,0.00,0.00
590,CA,Blythe Solar IV LLC,33.682000,-114.768000,SUN,124.80,0.00,0.00
591,CA,Bolthouse S&P and Rowen Farms Solar,34.564400,-117.693300,SUN,1.20,3778.00,0.00
592,CA,Borden Solar Farm,36.941111,-119.960000,SUN,50.00,0.00,0.00
593,CA,Borel,35.588069,-118.524804,WAT,12.00,-218.00,0.00
594,CA,Borrego Springs Energy Storage,33.270110,-116.349600,MWH,1.50,-111.00,0.00
595,CA,Bottle Rock Power,38.834800,-122.767700,GEO,55.00,0.00,0.00
596,CA,Bowerman Power LFG LLC,33.718889,-117.702222,LFG,23.80,107803.00,0.00
597,CA,Bowman,39.448352,-120.653417,WAT,3.60,14700.00,0.00
598,CA,Box Canyon Dam,41.279200,-122.329200,WAT,5.00,23912.00,0.00
599,CA,BP Carson Refinery,33.815300,-118.235800,OG,13.50,0.00,0.00
600,CA,Bradley Gas Recovery,34.235600,-118.380600,LFG,6.50,0.00,0.00
601,CA,Brawley,32.968889,-115.534444,DFO,23.00,0.00,0.00
602,CA,Brea Expansion Plant,33.932022,-117.840233,LFG,37.20,249613.01,0.00
603,CA,Britton Powerhouse,41.021389,-121.675000,WAT,2.80,0.00,0.00
604,CA,Broadridge Cogen,38.618300,-121.056400,NG,4.20,12618.00,8305.10
605,CA,Broadway,34.125400,-118.148000,NG,167.00,25680.00,17908.35
606,CA,Brookfield Tehachapi 1,35.008333,-118.241389,WND,102.00,286428.00,0.00
607,CA,Buckeye Geothermal Power Plant,38.824200,-122.840000,GEO,56.90,0.00,0.00
608,CA,Bucks Creek,39.910620,-121.327692,WAT,66.00,260393.00,0.00
609,CA,Buena Vista Biomass Power,38.277778,-120.913611,WDS,22.50,17414.00,1347.73
610,CA,Buena Vista Energy LLC,37.805000,-121.667200,WND,38.00,94980.00,0.00
611,CA,Buidling L,33.912917,-118.041944,SUN,1.00,57.00,0.00
612,CA,Building F,33.914356,-118.050189,SUN,1.30,71.00,0.00
613,CA,Building G,33.912917,-118.050561,SUN,1.20,86.00,0.00
614,CA,Burney Creek,40.857900,-121.722500,WAT,3.00,7147.00,0.00
615,CA,Burney Forest Products,40.879719,-121.720342,WDS,31.00,209592.00,11834.28
616,CA,Burney Mountain Power,40.909483,-121.640368,WDS,11.40,0.00,0.00
617,CA,Butt Valley,40.175656,-121.190663,WAT,40.00,76608.00,0.00
618,CA,Butte College Main Campus Solar,39.648056,-121.644167,SUN,3.50,5092.00,0.00
619,CA,C P Kelco San Diego Plant,32.694700,-117.143600,NG,28.00,88980.00,29315.03
620,CA,C&H Sugar Plant,38.057222,-122.218889,PUR,8.00,43070.00,0.00
621,CA,CA Department of Public Health at Richmo,37.920000,-122.344000,SUN,2.20,0.00,0.00
622,CA,CA Flats Solar 130 LLC,35.615573,-120.404352,SUN,130.00,0.00,0.00
623,CA,CA Flats Solar 150 LLC,35.615573,-120.404352,SUN,150.00,0.00,0.00
624,CA,Cabazon Wind Farm,33.914986,-116.710260,WND,39.70,57869.00,0.00
625,CA,Cabazon Wind Partners,33.917200,-116.735000,WND,41.00,116855.00,0.00
626,CA,Cabrillo Power I Encina Power Station,33.136100,-117.336400,NG,999.60,287880.00,235290.78
627,CA,Calabasas Gas to Energy Facility,34.151100,-118.723600,LFG,13.80,34529.00,0.00
628,CA,California Dairy Energy I LLC,36.295000,-119.416667,OBG,3.30,0.00,0.00
629,CA,California Institute of Technology,34.138467,-118.125600,NG,24.30,80571.00,25180.05
630,CA,California PV Energy at ISD WWTP,38.001111,-121.703889,SUN,1.00,2193.00,0.00
631,CA,California State University San Bernardi,34.185833,-117.324167,NG,1.40,6710.00,0.00
632,CA,California Valley Solar Ranch,35.323739,-119.916630,SUN,249.80,679796.00,0.00
633,CA,Calipatria Solar Farm,33.165833,-115.532222,SUN,20.00,45140.00,0.00
634,CA,Calistoga Power Plant,38.787900,-122.743400,GEO,176.40,557649.00,66993.20
635,CA,CalPeak Power - Border,32.562448,-116.943869,NG,60.50,11404.00,7276.39
636,CA,CalPeak Power - Enterprise,33.121943,-117.117441,NG,58.90,12176.00,7734.30
637,CA,CalPeak Power - Panoche,36.653500,-120.578300,NG,110.40,26076.00,11676.97
638,CA,CalPeak Power - Vaca Dixon,38.398867,-121.923973,NG,60.50,13758.00,8660.83
639,CA,Calpine Gilroy Cogen LP,37.000100,-121.536700,NG,130.00,141393.00,57184.16
640,CA,Calpine Sutter Energy Center,39.053139,-121.695873,NG,636.00,120.00,167.49
641,CA,CalRenew-1,36.757500,-120.365800,SUN,5.00,9358.00,0.00
642,CA,Caltech Central,34.135800,-118.126700,OBG,1.10,8.00,0.00
643,CA,Camanche,38.226800,-121.024500,WAT,10.80,16549.00,0.00
644,CA,Cameron Ridge LLC,35.075000,-118.315800,WND,59.60,173868.00,0.00
645,CA,Camino,38.828810,-120.537089,WAT,157.80,404004.00,0.00
646,CA,Camp Far West,39.048802,-121.316966,WAT,7.20,27711.00,0.00
647,CA,Campo Verde Solar,32.753333,-115.726389,SUN,147.40,362327.00,0.00
648,CA,Cantua Solar Station,36.425085,-120.343543,SUN,20.00,43802.00,0.00
649,CA,Canyon Crest Academy,32.959070,-117.191622,MWH,1.00,3.00,0.00
650,CA,Canyon Power Plant,33.858056,-117.861667,NG,200.00,123094.00,75620.93
651,CA,Caribou 1,40.085476,-121.148241,WAT,73.80,85487.00,0.00
652,CA,Caribou 2,40.085997,-121.149373,WAT,117.90,307410.00,0.00
653,CA,Carlsbad Energy Center,33.140000,-117.333611,NG,631.80,0.00,0.00
654,CA,Carson Cogeneration,38.445681,-121.462387,NG,125.50,380261.00,173492.99
655,CA,Carson Cogeneration Company,33.875900,-118.249100,NG,55.80,37159.00,19588.99
656,CA,Cascade Solar,34.157222,-116.234444,SUN,18.50,52502.00,0.00
657,CA,Castaic,34.587237,-118.656638,WAT,1682.00,378922.00,0.00
658,CA,Castle Rock Vineyards,35.801111,-119.110556,SUN,1.00,1733.00,0.00
659,CA,Castor Solar,35.211044,-119.387258,SUN,1.50,1457.00,0.00
660,CA,Catalina Solar 2 LLC,34.812222,-118.352778,SUN,18.00,56517.00,0.00
661,CA,Catalina Solar LLC,34.938261,-118.334492,SUN,110.00,269368.00,0.00
662,CA,CBS Studio Center,34.145000,-118.390833,NG,2.40,9496.00,0.00
663,CA,CBS Television City,34.075000,-118.360000,SUN,1.60,2553.00,0.00
664,CA,CCCSD Wastewater Treatment Plnt,37.997800,-122.069700,NG,3.50,19351.00,6696.82
665,CA,CDCR (CA) - Pleasant Valley State Prison,36.137219,-120.224445,SUN,1.60,3766.00,0.00
666,CA,CE Leathers,33.177900,-115.565000,GEO,45.50,298724.00,24248.12
667,CA,CE Turbo LLC,33.166900,-115.511400,GEO,11.50,79721.00,6471.14
668,CA,CE&P Imperial Valley 1,32.912778,-115.518333,OTH,50.00,0.00,0.00
669,CA,CED Avenal,35.996324,-120.151460,SUN,15.80,0.00,0.00
670,CA,CED Ducor 1,35.856278,-119.068414,SUN,20.00,2193.00,0.00
671,CA,CED Ducor 2,35.844167,-119.068069,SUN,20.00,1978.00,0.00
672,CA,CED Ducor 3,35.845378,-119.056992,SUN,15.00,1396.00,0.00
673,CA,CED Ducor 4,35.850403,-119.026992,SUN,20.00,1652.00,0.00
674,CA,Center Generating Station,33.929600,-118.104600,NG,59.80,27378.00,16312.71
675,CA,Centerville PH,39.788877,-121.657383,WAT,6.40,0.00,0.00
676,CA,Centinela Solar Energy,32.686944,-115.647778,SUN,174.80,484764.00,0.00
677,CA,Central Antelope Dry Ranch B LLC,34.705549,-118.301417,SUN,3.00,0.00,0.00
678,CA,Central Antelope Dry Ranch C,34.720499,-118.300460,SUN,20.00,28606.00,0.00
679,CA,Central Utilities Plant LAX,33.943965,-118.404250,NG,8.00,0.00,0.00
680,CA,Central Utilities Plant LAX 2,33.943889,-118.404167,NG,9.20,30745.00,9028.20
681,CA,Central Valley Ag Power,37.719722,-120.898611,OBG,1.50,130.00,0.19
682,CA,Century Generating Facility,34.060600,-117.353300,NG,44.80,1060.00,927.72
683,CA,CES Placerita Power Plant,34.380100,-118.499900,NG,150.00,0.00,0.00
684,CA,Chalk Cliff Limited,35.096800,-119.429900,NG,46.00,3411.00,1442.26
685,CA,Chalk Mountain Powerhouse,40.988056,-121.768333,WAT,2.20,0.00,0.00
686,CA,Chicago Park,39.177903,-120.890856,WAT,44.00,161362.00,0.00
687,CA,Childrens Hospital,32.799200,-117.151700,NG,11.50,27372.00,12060.52
688,CA,Chili Bar,38.771764,-120.813239,WAT,7.00,32350.00,0.00
689,CA,Chowchilla II,37.107300,-120.248500,NG,49.60,23216.99,14089.23
690,CA,Chuckawalla Solar,33.568333,-114.918056,SUN,4.00,9016.00,0.00
691,CA,Chuckawalla Valley State Prison,33.565329,-114.903629,SUN,1.00,3184.00,0.00
692,CA,Chula Vista Energy Center,32.591667,-117.058611,NG,44.00,4847.00,6209.92
693,CA,CID Solar LLC,36.138056,-119.564722,SUN,20.00,53664.00,0.00
694,CA,Citizen B,36.723806,-120.432139,SUN,5.00,12260.00,0.00
695,CA,City of Hayward WWTP,37.633526,-122.139717,OBG,2.10,10968.00,478.40
696,CA,City of Madera WWTP,36.940800,-120.157200,SUN,1.20,2164.00,0.00
697,CA,City of Palo Alto,37.438300,-122.109400,NG,4.40,22.00,13.98
698,CA,City of Soledad Water Reclamation,36.421111,-121.340278,WND,1.00,4291.00,0.00
699,CA,City of Tulare Water Facility,36.185000,-119.375000,OBG,3.00,4922.00,0.00
700,CA,Civic Center,34.056400,-118.243600,NG,34.50,138771.00,43866.55
701,CA,Clear Lake Hydro Project,38.923556,-122.566680,WAT,2.50,0.00,0.00
702,CA,Clearwater Power Plant,33.891200,-117.608500,NG,49.00,23508.00,9733.05
703,CA,Cloverdale Solar Center,38.769581,-123.020724,SUN,1.00,0.00,0.00
704,CA,Cloverdale Solar I,38.773056,-123.017778,SUN,1.50,2245.00,0.00
705,CA,Coachella,33.675800,-116.171400,NG,92.40,910.00,896.11
706,CA,Coal Canyon,39.605043,-121.600525,WAT,1.00,0.00,0.00
707,CA,Coalinga 25D Cogen,36.155600,-120.397200,NG,13.60,73836.00,22283.44
708,CA,Coalinga 6C Cogen,36.209700,-120.382800,NG,6.80,0.00,0.00
709,CA,Coalinga Cogeneration Facility,36.180700,-120.388500,NG,38.40,256666.00,96821.31
710,CA,Coalinga Cogeneration Facility,36.170317,-120.364084,NG,6.80,51620.00,16152.58
711,CA,Coca Cola American Canyon,38.190705,-122.275067,NG,1.10,3.00,0.00
712,CA,Cold Canyon 1,35.186667,-120.599444,LFG,1.50,10412.00,0.00
713,CA,Coleman PH,40.404645,-122.121904,WAT,12.10,47515.00,0.00
714,CA,Colgate,39.330833,-121.191666,WAT,315.00,1052713.00,0.00
715,CA,Colgreen North Shore Solar Farm,33.540124,-115.974771,SUN,74.80,0.00,0.00
716,CA,Collierville Powerhouse,38.144636,-120.380497,WAT,253.00,460788.00,0.00
717,CA,Collins Pine Project,40.303422,-121.244431,WDS,12.00,9354.00,118.90
718,CA,Colon PV,33.792694,-118.252407,SUN,1.30,2188.00,0.00
719,CA,Colton Solar One LLC,34.093333,-117.319444,SUN,2.50,4940.00,0.00
720,CA,Colton Solar Two LLC,34.042222,-117.361667,SUN,1.00,2108.00,0.00
721,CA,Columbia 3,35.024722,-118.164167,SUN,10.00,26450.00,0.00
722,CA,Columbia Solar Energy LLC,38.019671,-121.865060,SUN,19.20,40794.00,0.00
723,CA,Colusa Generating Station,39.366100,-122.270000,NG,712.40,2909398.00,1240480.10
724,CA,Combie South,39.009600,-121.059100,WAT,1.50,7927.00,0.00
725,CA,Commerce Refuse To Energy,33.994900,-118.153800,MSW,12.00,79508.00,63488.96
726,CA,Community Solar 1,32.982778,-115.481944,SUN,5.70,13953.00,0.00
727,CA,Con Dios Solar 11,34.260000,-116.335278,SUN,1.50,0.00,0.00
728,CA,Con Dios Solar 3,34.259722,-116.340278,SUN,1.50,0.00,0.00
729,CA,Contra Costa,38.019200,-121.764200,NG,718.00,0.00,0.00
730,CA,Control Gorge,37.437921,-118.556988,WAT,37.50,37040.00,0.00
731,CA,Coolwater,34.860600,-116.853900,NG,727.30,0.00,0.00
732,CA,Copco 1,41.978914,-122.335317,WAT,20.00,80964.00,0.00
733,CA,Copco 2,41.975716,-122.358127,WAT,27.00,104792.00,0.00
734,CA,Coram Energy LLC,35.075000,-118.341700,WND,4.40,11855.00,0.00
735,CA,Coram Energy LLC (ECT),35.058300,-118.341700,WND,10.80,28310.00,0.00
736,CA,Coram Tehachapi,35.066300,-118.339444,WND,6.50,14093.00,0.00
737,CA,Corcoran,36.102307,-119.566516,SUN,1.10,2022.00,0.00
738,CA,Corcoran Solar,36.138333,-119.573333,SUN,20.00,51179.00,0.00
739,CA,Corcoran Solar 2,36.141944,-119.581667,SUN,19.80,50862.00,0.00
740,CA,Corcoran Solar 3,36.150420,-119.585420,SUN,20.00,53413.00,0.00
741,CA,Corona,33.858950,-117.610600,WAT,2.90,20224.00,0.00
742,CA,Corona Energy Partners Ltd,33.882700,-117.556500,NG,47.00,131696.00,59324.67
743,CA,Coronal Lost Hills,35.726667,-119.905833,SUN,20.00,52623.00,0.00
744,CA,Coronus Adelanto West 1,34.548056,-117.464444,SUN,1.50,3126.00,0.00
745,CA,Coronus Adelanto West 2,34.548056,-117.464444,SUN,1.50,3201.00,0.00
746,CA,Coso Energy Developers,36.001900,-117.788600,GEO,90.00,267151.00,21685.28
747,CA,Coso Finance Partners,36.037200,-117.798100,GEO,92.20,484689.00,39343.34
748,CA,Coso Power Developers,36.019200,-117.791700,GEO,90.00,473756.00,38455.87
749,CA,Cosumnes Power Plant,38.338475,-121.123978,OG,530.00,3859086.00,1588819.26
750,CA,Cottonwood,36.443421,-118.043890,WAT,1.60,1613.00,0.00
751,CA,Cottonwood Solar LLC (City of Corcoran),36.134444,-119.554444,SUN,12.00,29661.00,0.00
752,CA,Cottonwood Solar LLC (Goose Lake),35.593611,-119.580000,SUN,12.00,35207.00,0.00
753,CA,Cottonwood Solar LLC Cottonwood Carport,38.129759,-122.568158,SUN,1.00,828.00,0.00
754,CA,Covanta Delano Energy,35.714400,-119.233700,,57.00,0.00,0.00
755,CA,Covanta Mendota,36.755896,-120.365422,NG,28.00,0.00,0.00
756,CA,Covanta Stanislaus Energy,37.385300,-121.141000,MSW,24.00,152532.00,143158.74
757,CA,Cove Hydroelectric,40.871300,-121.948700,WAT,5.00,16568.00,0.00
758,CA,Cow Creek,40.570817,-122.020930,WAT,1.40,6813.00,0.00
759,CA,Coyote Creek,33.924930,-117.955170,WAT,3.10,5858.00,0.00
760,CA,Crafton Hills College Solar Farm,34.043056,-117.098889,SUN,1.30,1806.00,0.00
761,CA,Crazy Horse Solar Project,36.803269,-121.618971,SUN,2.00,0.00,0.00
762,CA,Creed Energy Center,38.242158,-121.854722,NG,47.00,8501.00,5746.79
763,CA,Cresta,39.825907,-121.409687,WAT,73.80,250939.00,0.00
764,CA,Crockett Cogen Project,38.056900,-122.216100,NG,247.40,1399248.00,490429.50
765,CA,Crown Cooling Facility,32.967222,-115.532500,SUN,1.00,1325.00,0.00
766,CA,CSD 2 - Heritage High,37.921944,-121.755556,SUN,1.30,2167.00,0.00
767,CA,CSD 2- Freedom High,37.969722,-121.719444,SUN,1.10,1661.00,0.00
768,CA,CSU East Bay,37.658889,-122.059444,NG,1.40,3666.00,0.00
769,CA,CSU Fresno Solar Project,36.809841,-119.741665,SUN,1.00,1445.00,0.00
770,CA,CSU Northridge Plant,34.243333,-118.530556,NG,2.00,7055.00,3.71
771,CA,CSUCI Site Authority,34.161951,-119.047916,NG,31.10,170798.00,69432.48
772,CA,CSUF Nutwood Solar,33.879120,-117.888700,SUN,1.90,17.00,0.00
773,CA,CSUF State College,33.879120,-117.888700,SUN,1.00,14.00,0.00
774,CA,CSUF Trigeneration,33.880638,-117.886560,NG,8.50,32163.00,9740.10
775,CA,CTV Power Purchase Contract Trust,35.058300,-118.308300,WND,4.60,10620.00,0.00
776,CA,Cuyama Solar LLC,34.901000,-119.596000,SUN,40.00,0.00,0.00
777,CA,Cuyamaca Peak Energy,32.796491,-116.972071,NG,48.70,8176.00,5491.59
778,CA,Cymric 31X Cogen,35.363900,-119.659200,NG,6.80,45824.00,13870.30
779,CA,Cymric 36W Cogen,35.363300,-119.675600,NG,12.40,75396.00,23481.36
780,CA,Cymric 6Z Cogen,35.346102,-119.643431,NG,6.80,45643.00,13723.78
781,CA,De Sabla,39.869265,-121.631819,WAT,18.40,49393.00,0.00
782,CA,Deadwood Creek,39.530000,-121.095833,WAT,2.00,3330.00,0.00
783,CA,Deer Creek PH,39.298070,-120.844300,WAT,5.50,15919.00,0.00
784,CA,Del Ranch Company,33.164600,-115.616000,GEO,45.50,302960.00,24591.97
785,CA,Delano Energy Center LLC,35.790864,-119.294469,NG,48.50,11715.00,7706.25
786,CA,Delano Land 1,35.761217,-119.344408,SUN,1.00,0.00,0.00
787,CA,Delta Energy Center LLC,38.016900,-121.843900,NG,943.50,3421553.00,1470133.73
788,CA,Depot Park Solar System,38.515000,-121.398333,SUN,3.00,5263.00,0.00
789,CA,Dept of General Services -FTB,38.565000,-121.343000,SUN,2.70,0.00,0.00
790,CA,Desert Green Solar Farm LLC,33.270550,-116.348050,SUN,6.30,14189.00,0.00
791,CA,Desert Hot Springs Solar,33.923056,-116.530000,SUN,2.30,6329.00,0.00
792,CA,Desert Quartzite,33.565000,-114.753000,SUN,580.00,0.00,0.00
793,CA,Desert Sunlight 250 LLC,33.805500,-115.394700,SUN,249.70,623742.00,0.00
794,CA,Desert Sunlight 300 LLC,33.823056,-115.393889,SUN,313.70,722540.00,0.00
795,CA,Desert View Power,33.586000,-116.087300,WDS,55.50,332818.00,13796.43
796,CA,DESI-1 Battery Energy Storage Facility,33.799248,-117.873371,MWH,2.40,0.00,0.00
797,CA,Devil Canyon,34.205600,-117.334400,WAT,276.20,876777.00,0.00
798,CA,DGS Central Utility Plant,38.573889,-121.501389,NG,3.90,29.00,23.84
799,CA,Diablo Canyon,35.211536,-120.855542,NUC,2323.00,18907578.00,0.00
800,CA,Diablo Wind LLC,37.763653,-121.614392,WND,18.00,63351.00,0.00
801,CA,Diamond Valley Lake,33.680800,-117.069800,WAT,39.60,1664.00,0.00
802,CA,Diamond Valley Solar Project,33.713056,-117.072500,SUN,1.30,2490.00,0.00
803,CA,Difwind Farms Ltd I,33.898856,-116.572810,WND,7.30,11859.00,0.00
804,CA,Difwind Farms Ltd II,33.893685,-116.567811,WND,5.50,6475.00,0.00
805,CA,Difwind Farms Ltd V,33.887401,-116.578231,WND,11.70,13937.00,0.00
806,CA,Difwind Farms Ltd VI,35.050600,-118.171400,WND,27.10,37610.00,0.00
807,CA,Difwind Farms Ltd VII,37.758100,-121.525300,WND,24.00,0.00,0.00
808,CA,Difwind Farms Ltd VIII,35.050600,-118.171400,WND,15.00,0.00,0.00
809,CA,Dillon Wind LLC,33.939300,-116.552700,WND,45.00,142584.00,0.00
810,CA,Dinosaur Point,37.047800,-121.170800,WND,17.40,0.00,0.00
811,CA,Dinuba Energy,36.571485,-119.419176,NG,11.50,0.00,0.00
812,CA,Dinuba Wastewater Treatment Plant,36.538056,-119.426388,SUN,1.00,1803.00,0.00
813,CA,Dion R Holm,37.896649,-119.967500,WAT,156.80,648323.00,0.00
814,CA,Division,32.681667,-117.120277,DFO,16.00,0.00,0.00
815,CA,Division 1,34.708333,-118.130556,SUN,1.50,3223.00,0.00
816,CA,Division 2,34.708333,-118.130556,SUN,1.00,2058.00,0.00
817,CA,Division 3,34.708333,-118.130556,SUN,1.00,2072.00,0.00
818,CA,Dome Project,35.220833,-119.583056,NG,6.00,49238.00,18447.50
819,CA,Dominguez Plant,33.843100,-118.234700,WH,5.00,1244.00,0.00
820,CA,Don Pedro,37.695994,-120.420152,WAT,170.80,224070.00,0.00
821,CA,Donald Von Raesfeld,37.376700,-121.950800,NG,154.00,934537.00,441826.38
822,CA,Donnells,38.246656,-120.034072,WAT,72.00,347220.00,0.00
823,CA,Double C Generation Limited Partnership,35.500500,-119.046000,NG,49.80,10466.00,6355.70
824,CA,Drews Generating Facility,34.060900,-117.353200,NG,44.80,1515.00,1321.97
825,CA,Drop 1,32.711611,-114.942666,WAT,5.70,12398.00,0.00
826,CA,Drop 2 (CA),32.705435,-115.030975,WAT,10.00,45727.00,0.00
827,CA,Drop 3 (CA),32.705428,-115.126103,WAT,9.20,46355.00,0.00
828,CA,Drop 4,32.705341,-115.219067,WAT,19.60,93218.00,0.00
829,CA,Drop 5,32.673097,-115.392026,WAT,4.00,13508.00,0.00
830,CA,Drum 1,39.256873,-120.767437,WAT,49.20,157038.00,0.00
831,CA,Drum 2,39.257388,-120.767046,WAT,53.10,246250.00,0.00
832,CA,DSH (CA) - Coalinga State Hospital,36.137260,-120.218453,SUN,2.60,3817.00,0.00
833,CA,DTE Stockton,37.943633,-121.330433,WDS,54.00,349636.00,13898.75
834,CA,Dulles,34.030119,-117.517753,SUN,2.00,553.00,0.00
835,CA,Dutch Flat,39.216985,-120.835587,WAT,22.00,93409.00,0.00
836,CA,Dutch Flat 2,39.218400,-120.835200,WAT,27.30,90867.00,0.00
837,CA,Dutch Wind Energy,33.894200,-116.560300,WND,8.00,18800.00,0.00
838,CA,Dyer Road,37.739200,-121.432200,WND,10.50,0.00,0.00
839,CA,Dynegy Oakland Power Plant,37.796750,-122.281850,JF,223.50,5625.00,6649.89
840,CA,E F Oxnard Energy Facility,34.195800,-119.166400,NG,48.50,162322.00,71761.41
841,CA,E&B Resources,35.534584,-119.060029,SUN,1.00,2269.00,0.00
842,CA,EAFB - North Base,34.932500,-117.907222,SUN,1.10,2666.00,0.00
843,CA,EAFB - South Base,34.917222,-117.900278,SUN,1.10,2556.00,0.00
844,CA,East Highline,32.699451,-115.282450,WAT,2.40,2970.00,0.00
845,CA,East Portal Generator,34.261900,-118.624200,WAT,1.20,5086.00,0.00
846,CA,East Winds Project,33.890913,-116.541515,WND,3.00,7125.00,0.00
847,CA,EDF Renewable Windfarm V Inc,38.116700,-121.833300,WND,15.50,26039.00,0.00
848,CA,Edom Hills Project 1 LLC,33.881667,-116.460278,WND,31.00,44987.00,0.00
849,CA,Edward C Hyatt,39.542985,-121.492188,WAT,644.10,1703427.00,0.00
850,CA,Edwards Air Force Base,34.907700,-117.920600,SUN,3.00,2790.00,0.00
851,CA,El Cajon,32.795800,-116.972200,NG,18.00,801.00,756.66
852,CA,El Cajon Energy Center,32.796106,-116.972073,NG,49.90,10340.00,6674.79
853,CA,El Cajon Energy Storage,32.811500,-117.050546,MWH,7.50,0.00,0.00
854,CA,El Centro,32.802222,-115.540000,NG,438.30,1032735.00,542386.92
855,CA,El Dorado,38.793574,-120.619152,WAT,20.00,61247.00,0.00
856,CA,El Nido Facility,37.186700,-120.490300,WDS,12.50,74601.00,3352.23
857,CA,El Segundo,33.910556,-118.425000,NG,1533.80,1184687.00,591485.22
858,CA,El Segundo Cogen,33.905800,-118.403100,NG,182.80,1392040.00,839129.84
859,CA,El Sobrante Gas Recovery,33.793842,-117.475112,LFG,3.90,10829.00,0.00
860,CA,ELACC Photovoltaic Power Facility,34.040278,-118.148056,SUN,1.00,521.00,0.00
861,CA,Eland 1 Solar Farm,35.223700,-117.977000,SUN,200.00,0.00,0.00
862,CA,Eland 2 Solar Farm,35.216700,-117.977000,SUN,200.00,0.00,0.00
863,CA,Electra,38.330985,-120.669901,WAT,102.50,434128.00,0.00
864,CA,Elevation Solar C,34.730263,-118.304250,SUN,40.00,9046.00,0.00
865,CA,Elk Hills Cogen,35.479146,-119.737464,NG,46.60,53543.00,23254.99
866,CA,Elk Hills Power,35.280318,-119.470707,NG,623.00,3442847.00,1270579.68
867,CA,Ellwood,34.431419,-119.900055,NG,58.00,3939.00,3284.59
868,CA,Elmore Company,33.177700,-115.603300,GEO,45.50,305377.00,24788.16
869,CA,Encina Water Pollution Control,33.116500,-117.321500,OBG,4.70,12885.00,701.98
870,CA,Energy Center,34.063056,-117.163889,NG,1.50,7262.00,5166.78
871,CA,Energy Nuevo Storage Farm,36.702036,-119.883003,MWH,20.00,0.00,0.00
872,CA,Enerparc CA1 LLC,36.831667,-121.404167,SUN,1.50,3604.00,0.00
873,CA,Enerparc CA2 LLC,39.698980,-122.175583,SUN,1.50,3296.00,0.00
874,CA,Equilon Los Angeles Refining,33.791667,-118.234722,OG,83.00,495205.98,164135.18
875,CA,Equinix San Jose,37.241713,-121.781363,NG,1.10,8755.00,0.00
876,CA,Escondido Energy Center LLC,33.126100,-117.117200,NG,93.90,31846.00,19472.70
877,CA,Escondido Energy Storage,33.124446,-117.114274,MWH,30.00,0.00,0.00
878,CA,ESI Project,37.739167,-121.432222,WND,14.20,0.00,0.00
879,CA,Etiwanda,34.103450,-117.525700,WAT,23.90,0.00,0.00
880,CA,Etiwanda Generating Station,34.091180,-117.526630,NG,1050.10,156364.00,117483.47
881,CA,Exchequer,37.584345,-120.268590,WAT,94.50,148222.00,0.00
882,CA,Exeter Solar,36.267500,-119.128581,SUN,3.50,6956.00,0.00
883,CA,Expressway Solar A,34.582222,-117.341667,SUN,2.00,4985.00,0.00
884,CA,Expressway Solar B,34.583333,-117.340278,SUN,2.00,4427.00,0.00
885,CA,Expressway Solar C2,34.584444,-117.341389,SUN,1.50,3737.00,0.00
886,CA,ExxonMobil Santa Ynez Facility,34.464819,-120.044365,NG,49.30,0.00,0.00
887,CA,FAA NorCal TRACON,38.559533,-121.257556,SUN,1.00,4376.00,0.00
888,CA,Fairhaven Power,40.799500,-124.202800,WDS,18.80,68637.00,7240.94
889,CA,Fall Creek,41.985605,-122.360455,WAT,2.10,10146.00,0.00
890,CA,Fallbrook Energy Storage,33.384244,-117.235322,MWH,40.00,0.00,0.00
891,CA,Farad,39.394267,-120.021732,WAT,2.80,0.00,0.00
892,CA,Farmersville,36.190000,-119.120000,SUN,4.50,8804.00,0.00
893,CA,Feather River Energy Center,39.109344,-121.609310,NG,47.00,26059.00,18463.54
894,CA,Five Points Solar Park,36.386944,-120.236667,SUN,60.00,42913.00,0.00
895,CA,Five Points Solar Station,36.400278,-120.103333,SUN,15.00,29839.00,0.00
896,CA,Folsom,38.706750,-121.158443,WAT,198.60,593960.00,0.00
897,CA,Fontana,34.155162,-117.397119,WAT,3.00,1294.00,0.00
898,CA,Foothill,34.318248,-118.494449,WAT,11.00,31469.00,0.00
899,CA,Foothill Feeder,34.514800,-118.609200,WAT,9.00,27372.00,0.00
900,CA,Foothill Solar Project,34.273800,-118.345400,SUN,1.10,0.00,0.00
901,CA,Forbestown,39.551012,-121.278784,WAT,41.90,128938.00,0.00
902,CA,Forever 21 Retail Inc.,34.071389,-118.196111,SUN,1.70,2212.00,0.00
903,CA,Forks of Butte Hydro Project,39.869284,-121.631865,WAT,14.50,51348.00,0.00
904,CA,Foster Wheeler Martinez,38.024400,-122.058900,NG,113.50,752411.00,260825.05
905,CA,Foundation AB,38.232222,-122.092778,WND,1.50,2610.00,0.00
906,CA,Foundation California Training Facility,36.464000,-121.382000,WND,1.80,0.00,0.00
907,CA,Foundation CDCR LAC,34.691000,-118.221000,WND,1.90,0.00,0.00
908,CA,Foundation Cemex BMQ,34.623056,-117.112500,WND,3.00,3367.00,0.00
909,CA,Foundation Cemex Madison,38.692778,-121.932500,WND,1.00,1571.00,0.00
910,CA,Foundation Cemex River Plant,34.561944,-117.307222,WND,3.20,2882.00,0.00
911,CA,Foundation IE,34.084722,-117.529444,WND,1.00,337.00,0.00
912,CA,Foundation Mann Packing,36.504000,-121.454000,WND,1.80,0.00,0.00
913,CA,Foundation NWNA,33.914167,-116.749167,WND,5.10,13774.00,0.00
914,CA,Foundation RRM,33.917222,-116.815000,WND,2.00,9792.00,0.00
915,CA,Foundation SaIinas Valley State Prison,36.474000,-121.371000,WND,1.80,0.00,0.00
916,CA,Foundation Scheid Vineyards,36.274508,-121.191589,WND,1.90,0.00,0.00
917,CA,Foundation ST,37.714167,-121.521666,WND,2.00,2719.00,0.00
918,CA,Foundation Superior Farms,38.420000,-121.818056,WND,1.00,1425.00,0.00
919,CA,Foundation Wal-Mart Red Bluff,40.111111,-122.193889,WND,1.00,1985.00,0.00
920,CA,Four Mile Hill,41.601400,-121.625000,GEO,49.90,0.00,0.00
921,CA,FPL Energy Montezuma Winds LLC,38.163581,-121.796610,WND,36.80,90591.00,0.00
922,CA,Frankenheimer Power Plant,37.830378,-120.806972,WAT,5.30,9502.00,0.00
923,CA,Franklin (CA),34.103931,-118.413377,WAT,2.00,0.00,0.00
924,CA,Franklin Templeton San Mateo,37.542500,-122.292778,NG,1.10,7144.00,0.00
925,CA,Freeway Springs,33.892614,-118.037564,SUN,2.00,245.00,0.00
926,CA,French Meadows,39.077971,-120.406069,WAT,15.30,54456.00,0.00
927,CA,Fresno Cogeneration Partners LP,36.617022,-120.099846,NG,104.90,8484.00,2295.26
928,CA,Fresno Solar,36.616846,-120.105144,SUN,3.00,6443.00,0.00
929,CA,Friant Hydro Facility,36.997694,-119.703451,WAT,37.90,38412.00,0.00
930,CA,Frito-Lay Cogen Plant,35.395063,-119.321633,NG,6.00,27041.00,11221.72
931,CA,Frontier Solar LLC,37.379919,-121.130661,SUN,20.00,28416.00,0.00
932,CA,FRV Cygnus Solar Project,35.102778,-118.954444,SUN,20.00,50282.00,0.00
933,CA,FRV SI Transport Solar LP,38.486900,-121.391100,SUN,1.00,1751.00,0.00
934,CA,Fullerton Mill CHP,33.861667,-117.893056,NG,21.00,67642.00,22609.25
935,CA,G2 Energy Hay Rd,38.314722,-121.833611,LFG,1.60,11921.00,0.00
936,CA,G2 Energy Ostrom Road LLC,39.072800,-121.399200,LFG,3.50,24409.00,0.00
937,CA,Gap Pacific Distribution Center,36.783900,-119.709400,SUN,1.20,1975.00,0.00
938,CA,Garnet Solar Generation Station I LLC,33.890600,-116.543100,SUN,4.00,9602.00,0.00
939,CA,Garnet Wind Energy Center,33.905300,-116.582500,WND,6.50,18632.00,0.00
940,CA,Gas Utilization Facility,32.679172,-117.246698,OBG,6.10,38861.00,12.61
941,CA,Gates Peaker,36.152715,-120.148245,NG,46.50,0.00,0.00
942,CA,Gates Solar Station,36.176389,-120.114167,SUN,20.00,43717.00,0.00
943,CA,Gateway Generating Station,38.017500,-121.758700,NG,619.70,2435950.00,1061674.75
944,CA,Gaviota Oil Plant,34.475067,-120.205107,NG,14.00,0.00,0.00
945,CA,GE 1.7-100 Prototype,35.155278,-118.369444,WND,3.40,3373.00,0.00
946,CA,Genentech Vacaville Meter #1,38.390756,-121.947770,SUN,6.10,0.00,0.00
947,CA,Genentech-Oceanside,33.211095,-117.299593,SUN,6.50,4255.00,0.00
948,CA,Genesis Solar Energy Project,33.665000,-114.998055,SUN,250.00,624142.00,0.00
949,CA,Geo East Mesa II,32.775700,-115.263700,GEO,21.60,59440.00,4824.88
950,CA,Geo East Mesa III,32.775700,-115.263700,GEO,29.60,77604.00,6299.30
951,CA,Geothermal 1,38.752000,-122.719500,GEO,110.00,475231.00,57091.92
952,CA,Geothermal 2,38.749200,-122.711700,GEO,110.00,343787.00,41300.87
953,CA,Geysers Unit 5-20,38.777000,-122.745000,GEO,1273.00,4628971.00,556101.69
954,CA,Gianera,37.401000,-121.968670,NG,64.60,407.00,344.05
955,CA,Giffen,36.530278,-120.316111,SUN,20.00,20678.00,0.00
956,CA,Giffen Solar Park,36.544722,-120.316111,SUN,20.00,0.00,0.00
957,CA,Gilroy Energy Center LLC,36.999000,-121.536300,NG,135.00,18168.00,11907.59
958,CA,Gilroy Energy Center LLC for King City,36.225000,-121.127800,NG,133.20,419188.00,3032.88
959,CA,Glenarm,34.126000,-118.149400,NG,265.60,32284.36,30456.14
960,CA,Glendale Battery Energy Storage System,34.162327,-118.283684,MWH,2.00,0.00,0.00
961,CA,Goal Line,33.118500,-117.099500,NG,51.40,22993.00,7625.56
962,CA,Golden Acorn Casino,32.702107,-116.354587,WND,1.00,4138.00,0.00
963,CA,Golden Fields Solar I LLC,34.839012,-118.386843,SUN,54.00,14887.00,0.00
964,CA,Golden Hills North Wind Energy Center,37.769189,-121.630163,WND,46.00,0.00,0.00
965,CA,Golden Hills Wind,37.713311,-121.640353,WND,85.90,282731.00,0.00
966,CA,Golden Springs Building C-1,33.914167,-118.053611,SUN,1.20,1819.00,0.00
967,CA,Golden Springs Building D,33.911944,-118.052222,SUN,1.30,1999.00,0.00
968,CA,Goose Haven Energy Center,38.226752,-121.843271,NG,47.00,8760.00,6010.62
969,CA,Gosselin Hydro Plant,40.370000,-123.434700,WAT,2.00,6071.00,0.00
970,CA,Granger,33.270400,-117.058800,SUN,3.00,1978.00,0.00
971,CA,Grapeland Generating Station,34.090300,-117.534300,NG,59.80,33435.00,19717.75
972,CA,Graphic Packaging International,37.368153,-121.943607,NG,27.00,212079.00,86215.24
973,CA,Grassland 1&2 Solar Project,38.500278,-121.694167,SUN,2.50,4663.00,0.00
974,CA,Grassland 3&4 Solar Project,38.500278,-121.694167,SUN,2.50,4608.00,0.00
975,CA,Grayson Power Plant,34.155600,-118.278200,NG,353.90,144647.00,82474.24
976,CA,Green Acres Solar Facility 1,38.282021,-121.464676,SUN,3.00,6720.00,0.00
977,CA,Green Acres Solar Facility 2,38.283570,-121.461264,SUN,1.00,2315.00,0.00
978,CA,Green Beanworks B PV,34.688042,-117.989541,SUN,3.00,0.00,0.00
979,CA,Green Beanworks C PV,34.597000,-117.931000,SUN,3.00,0.00,0.00
980,CA,Green Beanworks D PV,34.654976,-118.082150,SUN,3.00,0.00,0.00
981,CA,Green Power I,33.901400,-116.716700,WND,16.50,23620.00,0.00
982,CA,Greenleaf One,39.052922,-121.696072,NG,66.00,46621.00,19928.98
983,CA,Greg Avenue,34.207950,-118.351600,WAT,1.00,0.00,0.00
984,CA,Gridley Main,39.373333,-121.684167,SUN,1.00,1789.00,0.00
985,CA,Gridley Main Two,39.373333,-121.681667,SUN,2.50,4749.00,0.00
986,CA,Grizzly,39.889287,-121.279173,WAT,22.00,40738.00,0.00
987,CA,Grossmont Hospital,32.779730,-117.006397,NG,6.10,19429.00,6506.75
988,CA,GRS American Canyon,38.141900,-122.243900,LFG,1.60,0.00,0.00
989,CA,GRS Coyote Canyon,33.613000,-117.821900,LFG,20.00,0.00,0.00
990,CA,GRS Newby I,37.456700,-121.941900,LFG,2.00,0.00,0.00
991,CA,Guernsey Solar Station,36.163889,-119.650556,SUN,20.00,45922.00,0.00
992,CA,H. Gonzales,33.998600,-118.221900,NG,11.80,311.64,243.43
993,CA,Haas,36.927424,-119.020250,WAT,135.00,344669.00,0.00
994,CA,Haiwee,36.109722,-117.956667,WAT,5.60,6770.00,0.00
995,CA,Halsey,38.956985,-121.041932,WAT,13.60,29404.00,0.00
996,CA,Hamilton Branch,40.268712,-121.089479,WAT,5.30,10118.00,0.00
997,CA,Hanford 1 and 2,36.306667,-119.629167,SUN,3.00,6042.00,0.00
998,CA,Hanford Energy Park Peaker,36.270072,-119.648055,NG,92.20,25634.00,16661.41
999,CA,Harbor Cogen,33.777100,-118.230300,NG,107.40,17402.00,10963.74
1000,CA,Harbor Generating Station,33.770600,-118.265600,NG,595.10,135414.00,88638.36
1001,CA,Hat Creek 1,40.929297,-121.544462,WAT,10.00,25538.00,0.00
1002,CA,Hat Creek 2,40.960675,-121.548657,WAT,10.00,32645.00,0.00
1003,CA,Hatchet Creek Project,40.874144,-121.920428,WAT,6.80,20683.00,0.00
1004,CA,Hatchet Ridge Wind Project,40.898100,-121.803600,WND,101.20,287240.00,0.00
1005,CA,Haynes Generating Station,33.764741,-118.099130,NG,2885.10,3368110.00,1579199.48
1006,CA,Haypress,39.565677,-120.581684,WAT,10.00,24682.00,0.00
1007,CA,Hayworth Solar,35.325278,-118.878611,SUN,27.00,59224.00,0.00
1008,CA,Heber Geothermal,32.714600,-115.518000,GEO,62.50,355359.00,0.00
1009,CA,Heber Solar,32.712500,-115.540556,SUN,10.90,25925.00,0.00
1010,CA,Hecate Energy Beacon Solar 1,35.269444,-118.014444,SUN,56.00,0.00,0.00
1011,CA,Hecate Energy Beacon Solar 3,35.253056,-118.014722,SUN,56.00,3013.00,0.00
1012,CA,Hecate Energy Beacon Solar 4,35.253611,-118.026944,SUN,50.00,9137.00,0.00
1013,CA,Heliocentric,34.654340,-117.971004,SUN,1.50,2792.00,0.00
1014,CA,Helms Energy Center,36.549167,-120.111111,NG,48.00,0.00,0.00
1015,CA,Helms Pumped Storage,37.029304,-118.968252,WAT,1053.00,-498562.00,0.00
1016,CA,Helzel & Schwarzhoff 86,35.092500,-118.395200,WND,2.40,2492.00,0.00
1017,CA,Helzel & Schwarzhoff 88 Wind Farm,35.090800,-118.393600,WND,1.80,1717.00,0.00
1018,CA,Henrietta D Energy Storage LLC,36.228872,-119.904686,MWH,10.00,0.00,0.00
1019,CA,Henrietta Peaker Plant,36.239700,-119.904400,NG,98.00,32522.00,18988.73
1020,CA,Henrietta Solar Project,36.218806,-119.805833,SUN,102.00,132134.00,0.00
1021,CA,Hesperia,34.435000,-117.378056,SUN,1.50,3197.00,0.00
1022,CA,HGST San Jose Standby Generator,37.244400,-121.796300,DFO,55.30,29.00,67.84
1023,CA,Hickman,37.621536,-120.746247,WAT,1.00,3360.00,0.00
1024,CA,High Desert Power Project,34.595300,-117.364700,NG,852.00,3089841.00,1391940.76
1025,CA,High Sierra Cogeneration Plant,40.412800,-120.477400,NG,6.00,34600.00,12952.94
1026,CA,High Sierra Limited,35.509041,-119.030546,NG,49.80,10653.00,5849.65
1027,CA,High Winds LLC,38.138100,-121.805300,WND,162.00,314276.00,0.00
1028,CA,HL Power,40.368338,-120.264848,WDS,36.20,117760.00,7205.91
1029,CA,Hoag Hospital Cogen Plant,33.622778,-117.936389,NG,4.50,0.00,0.00
1030,CA,Hollister Solar LLC,36.862500,-121.428889,SUN,1.50,3797.00,0.00
1031,CA,Honda Torrance,33.838056,-118.315000,NG,1.10,6958.00,0.00
1032,CA,Horn,34.708889,-118.274167,SUN,1.50,4406.00,0.00
1033,CA,Houweling Nurseries,34.179722,-119.083056,NG,13.20,70863.00,36302.56
1034,CA,Hudson Ranch Power II LLC,33.204444,-115.556667,GEO,55.00,0.00,0.00
1035,CA,Humboldt Bay,40.741500,-124.210300,NG,269.40,366744.00,195004.92
1036,CA,Hunters Point,37.733611,-122.389722,,427.40,0.00,0.00
1037,CA,Huron Solar Station,36.181389,-120.030555,SUN,20.00,42504.00,0.00
1038,CA,Hyperion Treatment Plant CHP Plant,33.925400,-118.429800,OBG,33.00,0.00,0.00
1039,CA,IKEA Tejon 345,34.975278,-118.946944,SUN,1.50,2951.00,0.00
1040,CA,Imperial Solar Energy Center South,32.663289,-115.658284,SUN,128.90,294191.00,0.00
1041,CA,Imperial Solar Energy Center West,32.772225,-115.779311,SUN,148.70,315255.00,0.00
1042,CA,Imperial Valley Solar Co (IVSC) 2 LLC,33.252222,-115.497500,SUN,20.00,49654.00,0.00
1043,CA,Imperial Valley Solar Company 1 LLC,33.245833,-115.496667,SUN,23.00,52939.00,0.00
1044,CA,Imperial Valley Solar LLC,32.671099,-115.587265,SUN,599.90,536525.00,0.00
1045,CA,Improvement Dst No. 4,35.402778,-119.038611,SUN,1.10,1502.00,0.00
1046,CA,Indian Valley Dam Hydro Project,39.078800,-122.535556,WAT,2.90,1910.00,0.00
1047,CA,Indigo Generation Facility,33.910873,-116.552994,NG,149.70,34464.00,21680.10
1048,CA,Industry MetroLink PV 1,34.008661,-117.845603,SUN,1.50,2867.00,0.00
1049,CA,Industry Solar Power Generation Station 1 LLC,34.553056,-117.456944,SUN,1.50,4437.00,0.00
1050,CA,Ingredion Stockton,37.912800,-121.261400,NG,10.00,21188.00,6608.30
1051,CA,Inland Empire Energy Center,33.738839,-117.170369,NG,819.00,383868.00,164314.47
1052,CA,Inskip,40.400988,-121.965502,WAT,7.60,18808.00,0.00
1053,CA,Intel Folsom,38.645119,-121.172999,SUN,1.00,1645.00,0.00
1054,CA,Intel Folsom Phase 2,38.643611,-121.163889,SUN,1.00,1740.00,0.00
1055,CA,Intel Folsom Phase 3,38.645961,-121.162623,SUN,5.20,1535.00,0.00
1056,CA,Intel Santa Clara,37.384745,-121.963808,NG,1.10,7853.00,0.00
1057,CA,Iron Gate,41.932981,-122.436780,WAT,18.00,100752.00,0.00
1058,CA,Ironwood Solar LLC,33.565000,-114.918056,SUN,4.00,8629.00,0.00
1059,CA,Isabella Hydro Project,35.643900,-118.482200,WAT,11.80,7498.00,0.00
1060,CA,ISH Solar Hospital Downey,33.921667,-118.124444,SUN,1.10,1616.00,0.00
1061,CA,ISH Solar Hospital SDMC,32.791667,-117.095277,SUN,1.10,1629.00,0.00
1062,CA,Ivanhoe Solar,36.387500,-119.255000,SUN,3.50,6835.00,0.00
1063,CA,Ivanpah 1,35.533056,-115.452500,SUN,133.00,255655.00,28655.17
1064,CA,Ivanpah 2,35.556111,-115.468611,SUN,133.40,199682.00,21755.02
1065,CA,Ivanpah 3,35.580833,-115.482500,SUN,133.40,247702.00,26454.18
1066,CA,J S Eastwood,37.147926,-119.256700,WAT,199.80,238699.00,0.00
1067,CA,J&A-Santa Maria II LLC,34.949400,-120.380300,LFG,1.40,7905.00,0.00
1068,CA,J.R. Simplot Company,37.806944,-121.277500,WH,4.00,10759.00,0.00
1069,CA,Jacumba Solar Farm,32.621200,-116.128960,SUN,20.00,0.00,0.00
1070,CA,James B Black,40.992295,-121.975182,WAT,168.60,587264.00,0.00
1071,CA,Jaybird,38.834050,-120.531760,WAT,161.60,575860.00,0.00
1072,CA,John L. Featherstone Plant,33.204635,-115.573303,GEO,55.00,443269.00,35981.18
1073,CA,Jones Fork,38.850283,-120.381883,WAT,10.00,22638.00,0.00
1074,CA,Judge F Carr,40.646934,-122.626973,WAT,154.40,133554.00,0.00
1075,CA,Juniper Networks Sunnyvale,37.406944,-122.026944,NG,1.10,6751.00,0.00
1076,CA,Kaiser Downey,33.919167,-118.128611,LFG,1.00,4.00,0.00
1077,CA,Kaiser Ontario,34.032500,-117.608889,OBG,1.00,4.00,0.00
1078,CA,Kanaka,39.558897,-121.296117,WAT,1.10,1277.00,0.00
1079,CA,Karen Avenue Wind Farm,33.921940,-116.562220,WND,11.70,27156.00,0.00
1080,CA,Kaweah 1,36.465066,-118.862023,WAT,2.30,6976.00,0.00
1081,CA,Kaweah 2,36.461326,-118.879880,WAT,1.80,5740.00,0.00
1082,CA,Kaweah 3,36.486059,-118.835645,WAT,4.80,18979.00,0.00
1083,CA,Kaweah Delta District Hospital,36.327500,-119.294700,NG,5.20,20233.00,19663.93
1084,CA,Kearny,32.834000,-117.133800,NG,161.50,4961.00,3935.01
1085,CA,Kekawaka Power House,40.094100,-123.508983,WAT,4.90,12540.00,0.00
1086,CA,Kellogg's - San Jose,37.356389,-121.871944,NG,1.10,7256.00,0.00
1087,CA,Kelly Ridge,39.531784,-121.491247,WAT,10.00,74148.00,0.00
1088,CA,Kerckhoff,37.092486,-119.552826,WAT,33.90,44863.00,0.00
1089,CA,Kerckhoff 2,37.071846,-119.558008,WAT,139.50,302683.00,0.00
1090,CA,Kern Canyon,35.440720,-118.796498,WAT,9.50,33870.00,0.00
1091,CA,Kern Front Limited,35.516470,-119.040128,NG,49.80,38562.00,23032.24
1092,CA,Kern Oil & Refining Co,35.295556,-118.918333,NG,4.50,32124.00,25600.59
1093,CA,Kern River 1,35.460303,-118.779590,WAT,26.40,152368.00,0.00
1094,CA,Kern River 3,35.776185,-118.436233,WAT,40.10,117487.00,0.00
1095,CA,Kern River Cogeneration,35.451500,-118.984900,NG,300.00,691722.00,236820.42
1096,CA,Kern River Eastridge Cogen,35.440600,-118.961700,NG,48.80,240943.00,70273.13
1097,CA,Kern River Fee A Cogen,35.459849,-119.013573,NG,7.40,0.00,0.00
1098,CA,Kern River Fee B Cogen,35.440481,-119.007726,NG,3.70,0.00,0.00
1099,CA,Kern River Fee C Cogen,35.464253,-118.996337,NG,7.90,0.00,0.00
1100,CA,Keswick,40.611858,-122.446441,WAT,117.00,333401.00,0.00
1101,CA,Kettering Solar 1,34.700278,-118.123611,SUN,1.00,2094.00,0.00
1102,CA,Kettering Solar 2,34.700278,-118.123611,SUN,1.00,1956.00,0.00
1103,CA,Kettleman Solar,35.990000,-120.120000,SUN,22.00,0.00,0.00
1104,CA,Kettleman Solar -Centaurus,36.050833,-119.947500,SUN,20.00,55998.00,0.00
1105,CA,Kettleman Solar Project,38.121390,-121.141220,SUN,1.00,2513.00,0.00
1106,CA,Kiefer Landfill,38.513600,-121.194400,LFG,9.00,54140.00,0.00
1107,CA,Kilarc,40.677827,-121.873253,WAT,3.00,15462.00,0.00
1108,CA,King City Peaking,36.224758,-121.124633,NG,47.30,4391.00,2998.34
1109,CA,Kingbird A Solar LLC,34.819000,-118.432000,SUN,20.00,42079.00,0.00
1110,CA,Kingbird B Solar LLC,34.824206,-118.438547,SUN,20.00,39681.00,0.00
1111,CA,Kings Beach,39.245833,-120.027222,DFO,31.20,225.00,179.85
1112,CA,Kings River PH,36.888166,-119.158777,WAT,48.60,125119.00,0.00
1113,CA,Kingsburg Cogen Facility,36.539700,-119.579400,NG,36.20,25975.00,15865.56
1114,CA,Kingsburg Solar,36.505278,-119.540278,SUN,3.70,7515.00,0.00
1115,CA,Kohls San Bernardino Solar Facility,34.094695,-117.266831,SUN,1.00,859.00,0.00
1116,CA,Kumeyaay Wind,32.705556,-116.342500,WND,50.00,142816.00,0.00
1117,CA,Kyocera America Project,32.819675,-117.140548,NG,3.80,7846.00,5476.84
1118,CA,L-8 Solar Project,34.654347,-117.973103,SUN,1.50,2175.00,0.00
1119,CA,La Grange,37.669700,-120.443600,WAT,4.50,9540.00,0.00
1120,CA,La Joya Del Sol,36.678611,-119.797500,SUN,1.50,3130.00,0.00
1121,CA,La Paloma Generating Plant,35.295600,-119.591900,NG,1200.00,4236172.00,1859683.91
1122,CA,Lake,34.177200,-118.314700,NG,60.50,13397.00,9646.04
1123,CA,Lake Hodges Hydroelectric Facility,33.058611,-117.119444,WAT,42.00,-10376.00,0.00
1124,CA,Lake Mathews,33.855300,-117.453700,WAT,4.90,32845.00,0.00
1125,CA,Lake Mendocino,39.197222,-123.185556,WAT,3.50,7997.00,0.00
1126,CA,Lake Perris Solar,33.836100,-117.129700,SUN,1.50,0.00,0.00
1127,CA,Lambie Energy Center,38.221577,-121.868333,NG,47.00,9366.00,6395.92
1128,CA,Lancaster Baptist Church,34.695833,-118.058889,SUN,1.00,2148.00,0.00
1129,CA,Lancaster Dry Farm Ranch B,34.716944,-118.289444,SUN,5.00,12980.00,0.00
1130,CA,Lancaster Little Rock,34.599444,-117.932778,SUN,5.00,12934.00,0.00
1131,CA,Lancaster SCE ReMAT,34.760270,-118.024608,SUN,3.00,0.00,0.00
1132,CA,Lancaster Solar 1,34.715000,-118.095000,SUN,1.50,3580.00,0.00
1133,CA,Lancaster Solar 2,34.710556,-118.166111,SUN,1.50,3580.00,0.00
1134,CA,Lancaster WAD B,34.780192,-118.193330,SUN,3.00,0.00,0.00
1135,CA,LanEast Solar Farm LLC,32.663611,-116.264720,SUN,20.00,0.00,0.00
1136,CA,LanWest Solar Farm LLC,32.629722,-116.271940,SUN,5.00,0.00,0.00
1137,CA,Larkspur Energy Faciity,32.567041,-116.944197,NG,99.80,46403.00,28363.04
1138,CA,Las Virgenes Municipal Water District,34.136111,-118.701944,SUN,1.00,2068.00,0.00
1139,CA,LATTC South Campus Solar,34.033056,-118.269722,SUN,1.10,0.00,0.00
1140,CA,Lemoore 1,36.257938,-119.798139,SUN,1.50,2931.00,0.00
1141,CA,Life Technologies - Pleasanton,37.643889,-121.884167,NG,1.10,7545.00,0.00
1142,CA,Life Technologies Carlsbad,33.137222,-117.286944,NG,1.10,7328.00,0.00
1143,CA,Lime Saddle,39.698755,-121.570960,WAT,2.00,3295.00,0.00
1144,CA,Lincoln Landfill,38.838056,-121.341944,LFG,4.80,27590.00,0.00
1145,CA,Lindberg FIeld Solar,32.729238,-117.207718,SUN,3.20,5399.00,0.00
1146,CA,Lindberg Field Solar 2,32.729444,-117.205083,SUN,1.90,0.00,0.00
1147,CA,Linde Wilmington,33.788560,-118.229392,NG,31.00,0.00,0.00
1148,CA,Lindsay Solar,36.211944,-119.133889,SUN,4.00,7836.00,0.00
1149,CA,Little Bear Solar 1 LLC,36.716000,-120.415000,SUN,20.00,0.00,0.00
1150,CA,Little Bear Solar 2 LLC,36.716000,-120.410000,SUN,20.00,0.00,0.00
1151,CA,Little Rock Pham Solar,34.600231,-117.947510,SUN,3.00,9038.00,0.00
1152,CA,Live Oak Limited,35.483700,-119.029800,NG,46.00,10434.00,0.00
1153,CA,Lockheed Martin Sunnyvale,37.413056,-122.028056,NG,1.10,7301.00,0.00
1154,CA,Lodi,38.146571,-121.300541,NG,27.40,1675.00,1901.31
1155,CA,Lodi Energy Center,38.088056,-121.387500,NG,288.90,530187.00,230979.76
1156,CA,Loma Linda University Cogen,34.050391,-117.248417,NG,13.30,71184.00,25133.02
1157,CA,Loma Rica Hydroelectric Powerhouse,39.223028,-120.991080,WAT,1.40,0.00,0.00
1158,CA,Lone Valley Solar Park I LLC,34.398059,-116.865517,SUN,10.00,22954.00,0.00
1159,CA,Lone Valley Solar Park II LLC,34.408333,-116.862500,SUN,20.00,44965.00,0.00
1160,CA,Long Beach Generating Station,33.764100,-118.224800,NG,587.40,25032.00,24760.74
1161,CA,Longboat Solar LLC,34.541000,-117.061000,SUN,20.00,6921.00,0.00
1162,CA,Loon Lake,38.982697,-120.324503,WAT,74.10,92670.00,0.00
1163,CA,Lopez Canyon,34.292645,-118.389774,LFG,1.50,0.00,0.00
1164,CA,Los Angeles Harbor College,33.783102,-118.284930,SUN,1.20,2555.00,0.00
1165,CA,Los Angeles Refinery Wilmington,33.768600,-118.286700,PRG,68.50,373715.00,114965.33
1166,CA,Los Esteros Critical Energy Facility,37.425000,-121.931900,NG,306.10,153933.00,79878.65
1167,CA,Los Medanos Energy Center LLC,38.030071,-121.873004,NG,678.30,2852471.00,1139206.02
1168,CA,Lost Creek I,40.757600,-121.414500,WAT,1.10,4032.00,0.00
1169,CA,Lost Hills Cogeneration Plant,35.666111,-119.766944,NG,10.50,36543.00,14323.33
1170,CA,Lost Hills/Blackwell,35.620000,-119.850000,SUN,32.00,91984.00,0.00
1171,CA,Lower Tule River,36.135680,-118.788868,WAT,2.60,10540.00,0.00
1172,CA,Lundy,38.042729,-119.172015,WAT,3.00,7722.00,0.00
1173,CA,Ma,34.695278,-118.062500,SUN,1.50,4344.00,0.00
1174,CA,Maclay Solar Project,34.319722,-118.430833,SUN,2.20,0.00,0.00
1175,CA,Madelyn Solar LLC,34.768333,-117.323611,SUN,1.00,2859.00,0.00
1176,CA,Madera 1 PV,37.056468,-120.167021,SUN,1.50,0.00,0.00
1177,CA,Madera Community Hospital,36.941111,-120.046667,SUN,1.00,2065.00,0.00
1178,CA,Magnolia,34.178056,-118.315556,NG,87.60,0.00,0.00
1179,CA,Magnolia,34.178600,-118.315300,NG,387.60,1628469.00,698405.57
1180,CA,Malaga Power,36.669700,-119.740400,NG,121.00,29062.00,18189.90
1181,CA,Malburg Generating Station,33.998600,-118.221900,NG,130.00,729120.00,317778.81
1182,CA,Mammoth Pacific I,37.645100,-118.914300,GEO,10.00,58949.00,0.00
1183,CA,Mammoth Pacific II,37.646400,-118.909200,GEO,30.00,71943.00,0.00
1184,CA,Mammoth Pool,37.220302,-119.337983,WAT,190.00,632582.00,0.00
1185,CA,Mandalay Generating Station,34.206700,-119.251100,NG,574.00,156692.00,98570.92
1186,CA,Manteca Land PV,37.840130,-121.216191,SUN,1.00,0.00,0.00
1187,CA,Manzana Wind LLC,34.934900,-118.461200,WND,189.00,540522.00,0.00
1188,CA,Margarita Energy Center,33.549444,-117.627777,NG,48.20,0.00,0.00
1189,CA,Mariani Packing Vacaville Solar,38.400080,-121.963660,SUN,1.00,1863.00,0.00
1190,CA,Maricopa East Solar,35.098000,-119.088000,SUN,18.00,0.00,0.00
1191,CA,Maricopa West Solar 2,35.121389,-119.325000,SUN,20.00,0.00,0.00
1192,CA,Maricopa West Solar PV LLC,35.115278,-119.317778,SUN,20.00,52566.00,0.00
1193,CA,Marin Clean Energy Solar One,37.945296,-122.377202,SUN,10.50,0.00,0.00
1194,CA,Marina Landfill Gas,36.713100,-121.768600,LFG,9.00,19075.00,0.00
1195,CA,Mariposa Energy Project,37.789167,-121.601944,NG,199.60,85575.00,54910.21
1196,CA,Marsh Landing Generating Station,38.016944,-121.765000,NG,828.00,66671.00,51033.77
1197,CA,Martinez Refining,38.016900,-122.111700,NG,100.00,826189.00,298353.40
1198,CA,Martinez Sulfuric Acid Regeneration Plt,38.031400,-122.113900,WH,4.00,13072.00,0.00
1199,CA,Maxim,37.405689,-121.949416,NG,1.10,8128.00,0.00
1200,CA,MCAGCC Cogen Plant,34.237222,-116.054167,NG,16.40,0.00,0.00
1201,CA,McClellan (CA),38.652731,-121.393336,NG,77.00,5260.00,3968.77
1202,CA,McClure,37.629360,-120.931390,NG,142.40,2853.00,3601.54
1203,CA,McCoy Solar Energy Project,33.694722,-114.739722,SUN,270.60,694378.00,0.00
1204,CA,McGrath Generating Station,34.205556,-119.246944,NG,49.80,31297.00,18686.16
1205,CA,McKittrick Cogen,35.316100,-119.659700,NG,21.60,83181.00,55982.45
1206,CA,McKittrick Limited,35.319503,-119.661992,NG,46.00,7248.00,3078.19
1207,CA,McSwain,37.522065,-120.310090,WAT,9.00,20145.00,0.00
1208,CA,Merced 1 PV,36.989475,-120.878081,SUN,3.00,0.00,0.00
1209,CA,Merced Falls,37.523010,-120.329905,WAT,3.40,7997.00,0.00
1210,CA,Merced Solar LLC,37.267778,-120.484444,SUN,1.50,3625.00,0.00
1211,CA,Meridian Vineyards,35.670278,-120.566944,SUN,1.10,1837.00,0.00
1212,CA,Mesa Wind Power Corp,33.946100,-116.676900,WND,29.90,7261.00,0.00
1213,CA,Mesquite Lake Energy Park Plant 2,32.903826,-115.511949,WDS,21.00,0.00,0.00
1214,CA,Mesquite Lake Water & Power Plant 1,32.906569,-115.513747,WDS,18.10,0.00,0.00
1215,CA,Metcalf Energy Center,37.220700,-121.745700,NG,635.00,2686602.00,1168716.59
1216,CA,Metro Support Services Center Solar,34.057800,-118.229722,SUN,1.20,1576.00,0.00
1217,CA,Mid Valley Plant,34.142500,-117.427400,LFG,2.60,11807.00,0.00
1218,CA,Middle Fork,39.024801,-120.596383,WAT,122.40,531978.00,0.00
1219,CA,Middle Gorge,37.510000,-118.569167,WAT,37.50,21160.00,0.00
1220,CA,Mid-Set Cogeneration,35.194560,-119.570970,NG,39.10,270558.00,103026.08
1221,CA,Midway Peaking,36.654114,-120.579727,NG,139.80,41395.00,27516.02
1222,CA,Midway Solar Farm 1,33.176627,-115.572788,SUN,50.00,0.00,0.00
1223,CA,Midway Solar Farm II,33.162056,-115.531694,SUN,30.00,0.00,0.00
1224,CA,Midway Solar Farm III,33.154761,-115.544918,SUN,20.00,0.00,0.00
1225,CA,Midway Sunset Cogen,35.226900,-119.629400,NG,234.00,910688.00,272208.28
1226,CA,Mill Creek 3,34.088019,-117.039539,WAT,3.00,5230.00,0.00
1227,CA,MillerCoors Irwindale Brewery,34.121667,-117.938333,NG,13.90,19176.00,7971.61
1228,CA,Millikan BESS,33.691000,-117.833000,MWH,2.00,0.00,0.00
1229,CA,Mira Loma,34.013056,-117.537500,SUN,3.00,3908.00,0.00
1230,CA,Mira Loma Energy Storage Facility,34.006125,-117.560934,MWH,20.00,0.00,0.00
1231,CA,Mira Loma Generating Station,34.005300,-117.560400,NG,49.80,32593.00,19687.22
1232,CA,Miramar,32.876100,-117.166400,NG,49.00,2624.00,2463.28
1233,CA,Miramar Energy Facility,32.876900,-117.166389,NG,106.00,122813.00,73741.39
1234,CA,Mission Rock Energy Center,34.308730,-119.106700,,300.00,0.00,0.00
1235,CA,Mission Solar LLC,37.267778,-120.482500,SUN,1.50,3594.00,0.00
1236,CA,Mitchell Solar LLC,34.765000,-117.323611,SUN,1.50,4484.00,0.00
1237,CA,MM Lopez Energy,34.292500,-118.389444,LFG,6.00,39949.00,0.00
1238,CA,MM San Diego-Miramar,32.844845,-117.162747,LFG,6.40,50825.00,1.84
1239,CA,MM San Diego-North City,32.881700,-117.195800,LFG,3.60,29076.00,32.10
1240,CA,MM Tulare Energy,36.388000,-119.394000,LFG,1.80,0.00,0.00
1241,CA,MM West Covina,34.033206,-117.906129,LFG,11.70,47791.00,0.00
1242,CA,MM Yolo Power,38.596283,-121.687518,LFG,2.80,17222.00,0.00
1243,CA,Mobile GT,40.741389,-124.210278,DFO,39.90,0.00,0.00
1244,CA,Moccasin,37.809388,-120.299254,WAT,100.00,359476.00,0.00
1245,CA,Moccasin Low Head Hydro Project,37.816447,-120.312033,WAT,2.90,1359.00,0.00
1246,CA,Mojave 16,35.045000,-118.264200,WND,30.00,36900.00,0.00
1247,CA,Mojave 17,35.044000,-118.276500,WND,25.00,32898.00,0.00
1248,CA,Mojave 18,35.046000,-118.275700,WND,30.00,48832.00,0.00
1249,CA,Mojave 3,35.068000,-118.289800,WND,23.50,64184.00,0.00
1250,CA,Mojave 4,35.050600,-118.257200,WND,29.00,79678.00,0.00
1251,CA,Mojave 5,35.076000,-118.248700,WND,22.50,65104.00,0.00
1252,CA,Mojave Siphon,34.307444,-117.323548,WAT,32.70,62376.00,0.00
1253,CA,Mojave Solar Project,35.017717,-117.339144,SUN,280.00,624907.00,0.00
1254,CA,Monterey Regional Water Cogen Facility,36.705600,-121.771400,OBG,1.80,8643.00,956.16
1255,CA,Monterey Regional Water Pollution Contro,36.721111,-121.787778,SUN,1.00,1282.00,0.00
1256,CA,Montezuma Wind II,38.116667,-121.821944,WND,78.20,200624.00,0.00
1257,CA,Montgomery Creek Hydro,40.846806,-121.956446,WAT,2.60,11134.00,0.00
1258,CA,Monticello Dam,38.513056,-122.104444,WAT,11.50,34959.00,0.00
1259,CA,Morelos del Sol,35.731362,-119.818712,SUN,15.00,39044.00,0.00
1260,CA,Morgan Lancaster 1,34.660800,-118.083600,SUN,1.50,4272.00,0.00
1261,CA,Moss Landing,36.804837,-121.782241,NG,2802.00,2584936.00,1145997.14
1262,CA,Mount Signal Solar 2,32.668500,-115.629200,SUN,153.50,0.00,0.00
1263,CA,Mount Signal Solar Farm 3,32.678805,-115.567210,SUN,252.30,0.00,0.00
1264,CA,Mountain View I&2,33.921100,-116.564200,WND,66.60,183827.00,0.00
1265,CA,Mountain View III,33.914100,-116.591400,WND,22.40,73553.00,0.00
1266,CA,Mountain View IV,33.881600,-116.552700,WND,49.00,165961.00,0.00
1267,CA,Mountainview Generating Station,34.081800,-117.241800,NG,1167.40,4890772.01,2141083.26
1268,CA,Mt Lassen Power,40.296900,-121.017800,WDS,11.40,0.00,0.00
1269,CA,Mt Poso Cogeneration,35.576323,-119.006245,WDS,62.00,258203.00,15433.11
1270,CA,Muck Valley Hydroelectric,40.976389,-121.255833,WAT,29.90,88172.00,0.00
1271,CA,Municipal Cogen Plant,33.824700,-116.510600,NG,2.60,4496.00,2246.06
1272,CA,Munro Valley Solar,36.264700,-117.995500,SUN,4.00,405.00,0.00
1273,CA,Murphys,38.147093,-120.446396,WAT,3.60,13756.00,0.00
1274,CA,Mustang Hills LLC,35.030855,-118.293188,WND,150.00,314587.00,0.00
1275,CA,MVUT,32.765000,-117.163900,NG,3.10,0.00,0.00
1276,CA,Nacimiento Hydro Project,35.798576,-120.883331,WAT,4.40,1062.00,0.00
1277,CA,Narrows 2,39.238996,-121.270409,WAT,46.70,28713.00,0.00
1278,CA,Narrows PH,39.236400,-121.271741,WAT,10.20,41923.00,0.00
1279,CA,Navajo Solar Power Generation Station 1 LLC,34.551111,-117.191111,SUN,1.50,4537.00,0.00
1280,CA,Naval Air Weapons Station China Lake,35.687710,-117.681370,SUN,11.10,29424.00,0.00
1281,CA,Naval Hospital Medical Center,32.726100,-117.146400,NG,7.70,4083.00,1611.98
1282,CA,Naval Station,32.681667,-117.120277,NG,26.00,0.00,0.00
1283,CA,Naval Station Energy Facility,32.679269,-117.122447,NG,55.20,352885.03,154192.23
1284,CA,Naval Training Center,32.735556,-117.208333,NG,16.00,0.00,0.00
1285,CA,NCPA Combustion Turbine Project #2,38.088138,-121.386944,NG,50.00,2304.00,1195.23
1286,CA,Neenach Solar Center,34.812791,-118.601170,SUN,1.50,0.00,0.00
1287,CA,Nelson Creek,41.028893,-121.892351,WAT,1.20,2502.00,0.00
1288,CA,New Hogan Power Plant,38.149582,-120.814942,WAT,3.00,4816.00,0.00
1289,CA,New Melones,37.946927,-120.528211,WAT,300.00,212094.00,0.00
1290,CA,Newberry Solar 1 LLC,34.853581,-116.683108,SUN,1.50,2546.00,0.00
1291,CA,Newcastle,38.835182,-121.092982,WAT,12.70,16068.00,0.00
1292,CA,New-Indy Ontario Mill,34.045361,-117.540193,NG,34.00,244988.00,82356.11
1293,CA,NextEra Westside PV,36.381775,-120.134486,SUN,20.00,0.00,0.00
1294,CA,Nickel 1 Solar Facility,35.647295,-119.716512,SUN,1.50,2991.00,0.00
1295,CA,Nicolis Solar PV Plant,35.835833,-119.056111,SUN,20.00,10254.00,0.00
1296,CA,Niland Gas Turbine Plant,33.238842,-115.504456,NG,121.00,76093.00,44969.64
1297,CA,Nimbus,38.637350,-121.220198,WAT,13.40,53959.00,0.00
1298,CA,Nordhoff Place,34.236667,-118.565833,SUN,1.20,1765.00,0.00
1299,CA,North Bay Solar 1,38.300556,-121.966389,SUN,1.00,2153.00,0.00
1300,CA,North Brawley Geothermal Plant,33.013900,-115.543900,GEO,64.00,70885.00,0.00
1301,CA,North City Cogeneration Facility,32.877822,-117.197788,LFG,1.60,9126.00,0.00
1302,CA,North Fork Community Power,37.231531,-119.494250,OBG,2.00,0.00,0.00
1303,CA,North Hollywood,34.194444,-118.390280,WAT,9.00,0.00,0.00
1304,CA,North Island,32.705000,-117.190277,,37.00,0.00,0.00
1305,CA,North Island Energy Facility,32.705160,-117.189665,NG,40.30,308548.00,117728.59
1306,CA,North Lancaster Ranch,34.719538,-118.313010,SUN,20.00,969.00,0.00
1307,CA,North Midway Cogen,35.276100,-119.598600,NG,10.50,0.00,0.00
1308,CA,North Palm Springs 1A,33.924167,-116.593333,SUN,2.50,3678.00,0.00
1309,CA,North Palm Springs 4A,33.909722,-116.562500,SUN,4.00,5630.00,0.00
1310,CA,North Rosamond Solar LLC,34.862000,-118.380000,SUN,150.00,0.00,0.00
1311,CA,North Sky River Energy LLC,35.347778,-118.186389,WND,162.00,464374.00,0.00
1312,CA,North Star Solar,36.730000,-120.410000,SUN,62.50,149639.00,0.00
1313,CA,Nove Power Plant,37.967600,-122.382000,LFG,3.00,4761.00,0.00
1314,CA,NRG Energy San Diego,32.714900,-117.168900,NG,1.60,1294.00,452.48
1315,CA,NRG Solar Blythe LLC,33.591700,-114.744400,SUN,21.00,45470.00,0.00
1316,CA,NRG Solar Borrego I,33.298889,-116.350830,SUN,26.00,71082.00,0.00
1317,CA,NRG Solar Oasis LLC,34.648889,-118.076667,SUN,20.00,59114.00,0.00
1318,CA,NTC/MCRD Energy Facility,32.735300,-117.208300,NG,25.60,166748.00,67517.41
1319,CA,Nunn,34.509167,-117.154444,SUN,1.00,2956.00,0.00
1320,CA,Oak Creek Energy Systems I,35.043889,-118.276388,WND,34.50,65658.00,0.00
1321,CA,Oak Flat,40.075310,-121.161430,WAT,1.40,5873.00,0.00
1322,CA,Oakley Generating Station,38.010000,-121.747500,NG,672.30,0.00,0.00
1323,CA,Oakley Solar Project,38.001667,-121.747778,SUN,1.50,2546.00,0.00
1324,CA,Oasis Wind,35.060940,-118.292406,WND,60.00,178931.00,0.00
1325,CA,Occidental College Solar Project,34.128300,-118.206903,SUN,1.00,1858.00,0.00
1326,CA,Ocotillo Express LLC,32.752778,-116.044722,WND,265.40,530978.00,0.00
1327,CA,Oildale Energy LLC,35.417000,-119.010200,NG,42.20,322.00,118.79
1328,CA,Olinda Landfill Gas Recovery Plant,33.905600,-117.843900,LFG,5.40,0.00,0.00
1329,CA,Olive,34.176400,-118.314700,NG,171.90,0.00,0.00
1330,CA,Olive View Medical Center,34.326242,-118.444770,NG,5.60,17986.00,5631.49
1331,CA,OLS Energy Chino,33.989626,-117.680911,NG,30.80,225984.00,86646.88
1332,CA,Olsen,40.670536,-121.890645,WAT,5.00,12003.00,0.00
1333,CA,Oltmans SCE at Champagne,34.043889,-117.531111,SUN,1.00,1858.00,0.00
1334,CA,Oltmans SCE at Jurupa,34.050000,-117.596111,SUN,1.50,2953.00,0.00
1335,CA,One Market Plaza,37.793333,-122.394167,NG,1.50,2381.00,777.01
1336,CA,One Ten Partners PV,34.615622,-117.936594,SUN,2.00,0.00,0.00
1337,CA,ONeill,37.098671,-121.047718,WAT,25.20,-50859.00,0.00
1338,CA,Orange Grove Project,33.359400,-117.111400,NG,118.00,42126.00,27071.39
1339,CA,Ord Mountain Solar,34.558411,-116.935434,SUN,60.00,0.00,0.00
1340,CA,Orion Solar I,35.150694,-118.875000,SUN,12.00,30567.00,0.00
1341,CA,Orion Solar II,35.150694,-118.875278,SUN,8.00,19668.00,0.00
1342,CA,Ormesa I,32.815600,-115.256800,GEO,55.20,66045.00,0.00
1343,CA,Ormesa IE,32.804100,-115.247500,GEO,14.40,0.00,0.00
1344,CA,Ormesa IH,32.784200,-115.247500,GEO,14.40,28069.00,0.00
1345,CA,Ormesa II,32.788100,-115.248100,GEO,48.00,69347.00,0.00
1346,CA,Ormond Beach Generating Station,34.129200,-119.168900,NG,1612.00,103280.00,79813.10
1347,CA,Oro Loma,36.876847,-120.667608,SUN,20.00,0.00,0.00
1348,CA,Oroville Cogeneration LP,39.492000,-121.562800,NG,7.70,135.00,43.37
1349,CA,Ortega Highway Energy Storage,33.562061,-117.543777,MWH,2.00,-2.00,0.00
1350,CA,Otay Landfill Gas LLC,32.598300,-117.017800,LFG,10.50,43814.00,0.00
1351,CA,Otay Mesa Energy Center LLC,32.581481,-116.914969,NG,688.50,2654182.00,1144915.28
1352,CA,Otoe Solar Power Generation Station 1 LL,34.545000,-117.191944,SUN,1.50,3564.00,0.00
1353,CA,Owens Valley Solar Project 11,36.275144,-118.012151,SUN,1.00,115.00,0.00
1354,CA,Oxbow (CA),39.003372,-120.746651,WAT,6.10,19405.00,0.00
1355,CA,Oxnard,34.196000,-119.166700,NG,68.70,502206.00,194652.71
1356,CA,Oxnard Paper Mill,34.141400,-119.183100,NG,29.00,196482.00,64506.41
1357,CA,Oxnard Wastewater Treatment Plant,34.140501,-119.184529,OBG,1.50,6401.00,457.58
1358,CA,P Plant,32.894722,-117.198056,NG,9.20,39850.00,15340.31
1359,CA,Pacific Cruise Ship Terminals Berth 93,33.733100,-118.277220,SUN,1.10,0.00,0.00
1360,CA,Pacific Ethanol Stockton Cogen Plant,37.941800,-121.338300,NG,4.80,0.00,0.00
1361,CA,Pacific Oroville Power Inc,39.480419,-121.565663,WDS,18.00,0.00,0.00
1362,CA,Pacific Rim Dairy Digester,36.033056,-119.510000,OBG,1.00,6364.00,4.54
1363,CA,Pacific Wind LLC,34.891389,-118.432500,WND,151.70,328829.00,0.00
1364,CA,Pacific-Ultrapower Chinese Station,37.874056,-120.477556,WDS,25.00,110996.00,3762.33
1365,CA,Painted Hills,33.936900,-116.618300,WND,19.00,32833.00,0.00
1366,CA,Painted Hills IV Wind,33.925727,-116.616666,WND,19.50,0.00,0.00
1367,CA,Pala Energy Storage Yard,33.356510,-117.113599,MWH,1.50,-4.00,0.00
